id,name,country_id,latitude,longitude,population
381157,Aachen,1017,50.77664,6.08342,265208
381154,Aalen,1017,48.83777,10.09330,67085
390079,Aalsmeer,1036,52.25917,4.75972,22991
390078,Aalten,1036,51.92500,6.58056,19141
378221,Aarau,1015,47.39254,8.04422,21503
387315,Abadan,1026,30.33920,48.30430,370180
387314,Abadeh,1026,31.16080,52.65060,59116
387100,Ābādeh,1026,28.83490,53.17260,59116
377729,Abadia de Goiás,1013,-16.75722,-49.43750,19128
377660,Abaeté,1013,-19.16000,-45.44583,20370
376537,Abaetetuba,1013,-1.71806,-48.88250,158188
392204,Abakan,1044,53.71541,91.42638,184168
387926,Abano Terme,1027,45.35753,11.78725,18224
388837,Abashiri,1029,44.02127,144.26971,35759
392203,Abaza,1044,52.65303,90.09454,18094
382395,Abbeville,1020,50.10521,1.83547,26461
387925,Abbiategrasso,1027,45.39821,8.91678,32784
377907,Abbotsford,1014,49.05798,-122.25257,141397
390981,Abbottabad,1041,34.14630,73.21168,275890
387313,Ābdānān,1026,32.99260,47.41980,19360
392017,Abdulino,1044,53.68581,53.65547,21195
386975,Abdu Rahiman Nagar,1024,11.06983,75.93879,41993
377659,Abelardo Luz,1013,-26.56472,-52.32833,17392
383623,Abepura,1022,-2.59640,140.63240,62248
383145,Aberdare,1021,51.71438,-3.44918,31135
393575,Aberdeen,1051,39.50956,-76.16412,15580
383144,Aberdeen,1021,57.14369,-2.09814,198590
395950,Aberdeen,1051,46.97537,-123.81572,16276
395225,Aberdeen,1051,45.46470,-98.48648,28102
383143,Abergele,1021,53.28436,-3.58220,17769
383142,Aberystwyth,1021,52.41548,-4.08292,18749
392384,Abha,1045,18.21639,42.50528,210886
387312,Abhar,1026,36.14680,49.21800,69889
386338,Abhayāpuri,1024,26.32255,90.68526,15847
388775,Abiko,1029,35.86667,140.01667,131771
393983,Abilene,1051,32.44874,-99.73314,125182
383141,Abingdon,1021,51.67109,-1.28278,38676
395161,Abington,1051,40.12067,-75.11795,55310
394515,Abington,1051,42.10482,-70.94532,15985
392016,Abinsk,1044,44.87058,38.15759,34668
386337,Abohar,1024,30.14453,74.19552,130603
392342,Abqaiq,1045,25.93402,49.66880,29474
386663,Abrama,1024,20.85865,72.90648,21000
376536,Abreu e Lima,1013,-7.91167,-34.90278,103945
387335,Abrīsham,1026,32.55613,51.57325,20000
386336,Ābu,1024,24.59365,72.71756,24981
392383,Abū ‘Arīsh,1045,16.96887,42.83251,49171
390659,Abucay,1040,14.73347,120.53358,35508
375669,Abu Dhabi,1009,24.45118,54.39696,1807000
387083,Abū Ghurayb,1025,33.30563,44.18477,900000
386335,Ābu Road,1024,24.48012,72.78186,50262
390658,Abuyog,1040,10.74700,125.01070,15632
387311,Ābyek,1026,36.06667,50.55000,55128
377730,Açailândia,1013,-4.94667,-47.50472,106550
376535,Acará,1013,-1.96083,-48.19667,59023
376534,Acaraú,1013,-2.88556,-40.12000,65264
383140,Accrington,1021,53.75379,-2.35863,35318
387924,Acerra,1027,40.94477,14.37140,59910
386334,Achalpur,1024,21.25665,77.51006,112311
379757,Acheng,1016,45.54558,126.95191,144665
382394,Achères,1020,48.96115,2.06882,21660
381153,Achern,1017,48.63115,8.07607,24478
386333,Achhībal,1024,33.68409,75.21835,17556
386332,Achhnera,1024,27.17826,77.75674,20532
381152,Achim,1017,53.01416,9.02630,30013
392202,Achinsk,1044,56.26792,90.50145,117634
392015,Achkhoy-Martan,1044,43.19219,45.28345,16779
387445,Aci Castello,1027,37.55564,15.14535,17588
387444,Aci Catena,1027,37.60614,15.14165,24663
387923,Acilia-Castel Fusano-Ostia Antica,1027,41.76337,12.33078,129362
387443,Acireale,1027,37.60886,15.16577,49477
376533,Acopiara,1013,-6.09528,-39.45250,44962
381609,A Coruña,1018,43.37135,-8.39600,246056
387922,Acquaviva delle Fonti,1027,40.89704,16.84330,20536
387921,Acqui Terme,1027,44.67552,8.46934,17828
383719,Acre,1023,32.92814,35.07647,51420
377731,Acreúna,1013,-17.39556,-50.37694,21568
394516,Acton,1051,42.48509,-71.43284,20897
383139,Acton,1021,51.50901,-0.27620,53689
376532,Açu,1013,-5.57667,-36.90861,56496
393373,Acworth,1051,34.06635,-84.67837,22131
393866,Ada,1051,34.77453,-96.67834,17303
390184,Adam,1039,22.37934,57.52718,17283
377658,Adamantina,1013,-21.68528,-51.07250,35642
386361,Adampur,1024,31.43224,75.71484,17027
386428,Adampur,1024,29.28026,75.46818,25531
393137,Adams Morgan,1051,38.92150,-77.04220,15830
386755,Ādanāttutekkumuri Kizhakku,1024,9.07909,76.51367,22250
386331,Addanki,1024,15.81061,79.97338,28547
392381,Ad Dawādimī,1045,24.50772,44.39237,54474
392380,Ad Dilam,1045,23.99104,47.16181,35371
392379,Ad Dir‘īyah,1045,24.75187,46.53874,61609
394334,Addison,1051,41.93170,-87.98896,37208
393984,Addison,1051,32.96179,-96.82917,15518
387082,Ad Dīwānīyah,1025,31.99289,44.92552,318801
387081,Ad Dujayl,1025,33.84667,44.23444,26362
381455,Adeje,1018,28.12271,-16.72600,43204
375744,Adelaide,1011,-34.92866,138.59863,1469163
375799,Adelaide Hills,1011,-34.91119,138.70735,60394
395345,Adelanto,1051,34.58277,-117.40922,33166
387920,Adelfia,1027,41.00330,16.87208,16756
393576,Adelphi,1051,39.00317,-76.97192,15086
375668,Adh Dhayd,1009,25.28812,55.88157,20165
386765,Adichānallūr,1024,8.88049,76.71558,27240
386330,Ādilābād,1024,19.67203,78.53590,118526
386203,Adirampattinam,1024,10.34059,79.37905,27909
383609,Adiwerna,1022,-6.93750,109.13250,134188
392014,Adler,1044,43.42896,39.92391,70200
378220,Adliswil,1015,47.30997,8.52462,15230
386329,Adoni,1024,15.62788,77.27495,184625
381454,Adra,1018,36.74831,-3.02076,24373
386328,Adra,1024,23.49668,86.68363,22159
387442,Adrano,1027,37.66358,14.83283,34446
394652,Adrian,1051,41.89755,-84.03717,20691
386327,Adūr,1024,9.15595,76.73192,29652
383138,Adwick le Street,1021,53.57077,-1.18454,19481
381608,A Estrada,1018,42.68911,-8.48842,20661
387080,‘Afak,1025,32.06430,45.24743,21888
393669,Affton,1051,38.55061,-90.33317,20307
392378,Afif,1045,23.90650,42.91724,45525
392013,Afipskiy,1044,44.90005,38.84265,18209
376531,Afogados da Ingazeira,1013,-7.75083,-37.63917,42407
377657,Afonso Cláudio,1013,-20.07417,-41.12389,30684
387919,Afragola,1027,40.92298,14.30935,64470
376530,Afrânio,1013,-8.51500,-41.00500,19349
376529,Afuá,1013,-0.15667,-50.38667,37765
383720,Afula,1023,32.60907,35.28920,44930
386326,Afzalgarh,1024,29.39370,78.67393,27753
386325,Afzalpur,1024,17.19986,76.36018,27088
389178,Agano,1029,37.83605,139.22332,40696
386324,Agar,1024,23.71177,76.01571,37917
386323,Agartala,1024,23.83605,91.27939,203264
383608,Agats,1022,-5.54505,138.13522,23869
394517,Agawam,1051,42.06954,-72.61481,28761
382393,Agde,1020,43.31083,3.47583,23001
382392,Agen,1020,44.20199,0.62055,34367
388617,Ageo,1029,35.97145,139.61382,226940
387310,Aghajari,1026,30.70060,49.83150,21785
391454,Agidel’,1044,55.90867,53.93437,19217
392272,Aginskoye,1044,51.10754,114.54173,17496
390657,Aglipay,1040,16.48890,121.64500,30714
390656,Agoo,1040,16.08333,120.10000,28972
395346,Agoura,1051,34.14306,-118.73787,20537
395347,Agoura Hills,1051,34.13639,-118.77453,20915
386322,Agra,1024,27.18333,78.01667,1430055
376528,Agrestina,1013,-8.45806,-35.94472,24615
387441,Agrigento,1027,37.31065,13.57661,32514
387918,Agropoli,1027,40.34923,14.99067,17335
392012,Agryz,1044,56.52034,52.99422,18601
377732,Água Azul do Norte,1013,-6.79111,-50.46694,18080
377733,Água Boa,1013,-14.05000,-52.15861,31314
376526,Água Branca,1013,-9.26083,-37.93611,19550
376527,Água Branca,1013,-5.89222,-42.63611,17573
395348,Agua Caliente,1051,38.32408,-122.48804,27090
377656,Água Clara,1013,-20.44806,-52.87806,16741
377655,Aguaí,1013,-22.05944,-46.97861,32888
376525,Água Preta,1013,-8.70750,-35.53056,27221
377654,Água Rasa,1013,-20.43333,-45.16667,80484
376524,Águas Belas,1013,-9.11139,-37.12306,43713
377653,Águas de Lindóia,1013,-22.47639,-46.63278,18245
377734,Águas Lindas de Goiás,1013,-15.76194,-48.28167,225693
377652,Águas Vermelhas,1013,-15.74722,-41.46000,16409
377651,Agudo,1013,-29.64528,-53.24000,16041
377650,Agudos,1013,-22.46917,-48.98750,30807
381453,Águilas,1018,37.40630,-1.58289,34533
381452,Agüimes,1018,27.90539,-15.44609,28924
387309,Ahar,1026,38.47740,47.06990,94348
381151,Ahaus,1017,52.07936,7.01344,38165
386320,Ahilyanagar,1024,19.09457,74.73843,367140
386535,Ahīwāra,1024,21.35799,81.41794,20384
381150,Ahlen,1017,51.76338,7.88870,55280
386319,Ahmadpur,1024,18.70622,76.93731,43936
390980,Ahmadpur East,1041,29.14269,71.25771,116579
390984,Ahmadpur Sial,1041,30.67791,71.74344,24889
386321,Ahmedabad,1024,23.02579,72.58727,6357693
386318,Ahraura,1024,25.01579,83.03294,25075
381149,Ahrensburg,1017,53.67515,10.22593,30103
379467,Ahu,1016,34.37664,118.60308,55298
387308,Ahvaz,1026,31.31901,48.68420,841145
386317,Ahwa,1024,20.75718,73.68626,15004
375689,Aībak,1010,36.26468,68.01551,47823
381148,Aichach,1017,48.45755,11.13413,21042
388616,Aihara,1029,35.60000,139.31667,725493
393907,Aiken,1051,33.56042,-81.71955,30604
377649,Aimorés,1013,-19.49583,-41.06389,19133
388615,Aioi,1029,34.80361,134.46806,28355
389091,Aira,1029,31.77429,130.59208,76348
377908,Airdrie,1014,51.30011,-114.03528,24673
383137,Airdrie,1021,55.86602,-3.98025,37130
386378,Airoli,1024,19.15096,72.99625,100000
388939,Aisai,1029,35.16349,136.73222,60829
386419,Aistala,1024,23.18000,88.58000,19425
382391,Aix-en-Provence,1020,43.52830,5.44973,146821
382390,Aix-les-Bains,1020,45.69173,5.90863,27651
386316,Aizawl,1024,23.72894,92.71791,265331
388974,Aizu-misato Machi,1029,37.40862,139.81317,19014
388885,Aizu-Wakamatsu,1029,37.49142,139.94546,118159
387307,Ajab Shīr,1026,37.47760,45.89430,29675
382389,Ajaccio,1020,41.91886,8.73812,54364
386315,Ajaigarh,1024,24.89879,80.25921,16656
386592,Ajānūr,1024,12.33614,75.09297,33079
386312,Ajara,1024,16.11601,74.21097,17257
377909,Ajax,1014,43.85012,-79.03288,119677
388774,Ajiki,1029,35.83333,140.23333,20127
387979,‘Ajlūn,1028,32.33326,35.75279,125557
375667,Ajman City,1009,25.40177,55.47878,490035
386314,Ajmer,1024,26.45210,74.63867,517911
386313,Ajnāla,1024,31.84473,74.76295,19691
388614,Akaike,1029,33.69189,130.76531,21398
389151,Akaiwa,1029,34.80986,134.02153,43742
386311,Akalkot,1024,17.52532,76.20611,40103
386579,Akalkuva,1024,21.55430,74.01922,17840
386310,Akaltara,1024,22.02463,82.42641,22712
387988,Akashi,1029,34.65524,135.00687,303601
386308,Akbarpur,1024,26.42953,82.53431,36865
386309,Akbarpur,1024,26.38371,79.94926,18835
392488,Åkersberga,1046,59.47944,18.29967,32659
380169,Akesalayi,1016,37.16920,79.68984,27352
386307,Akhnūr,1024,32.89550,74.73486,20756
392011,Akhtubinsk,1044,48.28339,46.16519,44551
392010,Akhtyrskiy,1044,44.85460,38.30310,19468
388613,Aki,1029,33.50000,133.90000,16370
389121,Akiruno,1029,35.72854,139.23180,81912
388874,Akishima,1029,35.72085,139.37999,113949
388773,Akita,1029,39.71667,140.11667,307672
389112,Aki-takata,1029,34.67416,132.68188,32323
386306,Akivīdu,1024,16.58225,81.38112,40413
386391,Akkarampalle,1024,13.65000,79.42000,44219
386305,Aklera,1024,24.41288,76.56719,19683
386304,Aklūj,1024,17.89241,75.02138,39972
386303,Akola,1024,20.70957,76.99810,428857
390979,Akora,1041,34.00337,72.12561,23288
386302,Akot,1024,21.09630,77.05880,92637
395072,Akron,1051,41.08144,-81.51901,197542
392009,Aksay,1044,47.26331,39.86900,38871
388611,Akune,1029,32.01667,130.20000,25089
394240,Alabaster,1051,33.24428,-86.81638,32707
390655,Alabel,1040,6.10179,125.29048,88294
396062,Alafaya,1051,28.56410,-81.21140,78113
392021,Alagir,1044,43.04252,44.22020,19665
376523,Alagoa Grande,1013,-7.04159,-35.62699,26062
376522,Alagoa Nova,1013,-7.07083,-35.75833,21013
377648,Alagoinhas,1013,-12.13556,-38.41917,122688
375666,Al Ain City,1009,24.19167,55.76056,846747
380143,Alamaiti,1016,38.58203,77.47622,23583
387079,Al ‘Amārah,1025,31.83561,47.14483,323302
389842,Alam Damai,1035,3.06028,101.74080,35000
395349,Alameda,1051,37.77099,-122.26087,78630
390654,Alaminos,1040,14.06391,121.24649,31427
393985,Alamo,1051,26.18369,-98.12306,19246
395759,Alamogordo,1051,32.89953,-105.96027,30753
386301,Aland,1024,17.56425,76.56854,42371
386300,Alandi,1024,18.67756,73.89868,28645
386781,Alang,1024,21.39878,72.17544,18480
386665,Alangad,1024,10.10192,76.29104,47329
386299,Alangāyam,1024,12.62235,78.75207,17357
386298,Ālangulam,1024,8.86404,77.49937,28558
386709,Ālankōd,1024,10.74603,76.03481,33918
392201,Alapayevsk,1044,57.84998,61.69414,44000
386290,Alappuzha,1024,9.49004,76.32640,240991
392377,Al ‘Aqīq,1045,20.65000,41.41667,19269
381451,Alaquàs,1018,39.45568,-0.46100,30392
386297,Alattūr,1024,10.65000,76.53333,26720
392008,Alatyr’,1044,54.84210,46.58130,42156
392376,Al ‘Awwāmīyah,1045,26.59144,49.97951,26276
387078,Al ‘Azīzīyah,1025,32.90941,45.06359,44751
387917,Alba,1027,44.69990,8.03470,24923
381450,Albacete,1018,38.99424,-1.85643,169716
392386,Al Badā’i‘ al Wusţá,1045,25.98546,43.73659,48474
392375,Al Bahah,1045,20.01288,41.46767,88419
381449,Albal,1018,39.40000,-0.41667,15443
387916,Albano Laziale,1027,41.72748,12.65900,26684
395350,Albany,1051,37.88687,-122.29775,19735
395860,Albany,1051,44.63651,-123.10593,52175
375743,Albany,1011,-35.02692,117.88369,35053
394927,Albany,1051,42.65258,-73.75623,101228
393374,Albany,1051,31.57851,-84.15574,74843
390670,Al-Barka,1040,6.48623,122.17552,23736
392374,Al Baţţālīyah,1045,25.43333,49.63333,16606
393749,Albemarle,1051,35.35014,-80.20006,16003
387915,Albenga,1027,44.04997,8.21829,17103
394727,Albert Lea,1051,43.64801,-93.36827,17674
382388,Albertville,1020,45.67452,6.39061,19113
394241,Albertville,1051,34.26783,-86.20878,21462
382387,Albi,1020,43.92980,2.14800,52409
387914,Albignasego,1027,45.34705,11.86781,16477
390077,Alblasserdam,1036,51.86583,4.66111,18348
381448,Albolote,1018,37.23088,-3.65510,17089
381447,Alboraya,1018,39.50000,-0.35000,22405
381147,Albstadt,1017,48.21644,9.02596,46664
392373,Al Bukayrīyah,1045,26.13915,43.65782,43229
395760,Albuquerque,1051,35.08449,-106.65114,564559
390183,Al Buraymī,1039,24.25088,55.79312,73670
381446,Alcalá de Guadaira,1018,37.33791,-5.83951,70155
381700,Alcalá de Henares,1018,40.48205,-3.35996,204574
381445,Alcalá la Real,1018,37.46140,-3.92301,22783
387440,Alcamo,1027,37.97790,12.96473,44431
381699,Alcañiz,1018,41.05000,-0.13333,16392
376521,Alcântara,1013,-2.40410,-44.41669,18467
381444,Alcantarilla,1018,37.96939,-1.21714,41084
381443,Alcázar de San Juan,1018,39.39011,-3.20827,30675
393063,Alchevsk,1050,48.46893,38.81669,106062
381698,Alcobendas,1018,40.54746,-3.64197,107514
381697,Alcorcón,1018,40.34582,-3.82487,167967
381441,Alcoy,1018,38.70545,-0.47432,61552
381440,Alcúdia,1018,39.85316,3.12138,19071
381439,Aldaia,1018,39.46569,-0.46005,29914
392271,Aldan,1044,58.61232,125.40002,24426
377735,Aldeias Altas,1013,-4.62778,-43.47056,23286
383136,Aldershot,1021,51.24827,-0.76389,61339
383135,Aldridge,1021,52.60549,-1.91715,16008
377647,Alegre,1013,-20.76361,-41.53306,29177
377646,Alegrete,1013,-29.78306,-55.79194,72409
392007,Aleksandrov,1044,56.39733,38.71404,64088
392006,Aleksandrovsk,1044,59.15838,57.57050,15486
392005,Aleksandrovskoye,1044,44.71417,43.00083,28006
391314,Aleksandrów Łódzki,1042,51.81965,19.30384,20292
392003,Aleksin,1044,54.50484,37.06697,66885
377645,Além Paraíba,1013,-21.88778,-42.70444,33907
382386,Alençon,1020,48.43476,0.09311,30786
386723,Alengād,1024,10.11901,76.30226,47329
376520,Alenquer,1013,-1.94167,-54.73833,69377
382385,Alès,1020,44.12489,4.08082,42410
387306,Aleshtar,1026,33.86419,48.26258,27701
387913,Alessandria,1027,44.90924,8.61007,92104
390117,Ålesund,1037,62.47225,6.15492,52626
393545,Alexandria,1051,31.31129,-92.44514,47889
394148,Alexandria,1051,38.80484,-77.04692,159467
377736,Alexânia,1013,-16.08222,-48.50722,27008
392004,Alexeyevka,1044,50.63092,38.69030,39848
392200,Aleysk,1044,52.49631,82.77466,28019
381438,Alfafar,1018,39.41667,-0.38333,20853
387076,Al Fallūjah,1025,33.34913,43.78599,190159
387075,Al Fāw,1025,29.97421,48.47309,104569
381146,Alfeld,1017,51.98382,9.81989,19138
377644,Alfenas,1013,-21.42917,-45.94722,71406
382384,Alfortville,1020,48.80575,2.42040,37290
383134,Alfreton,1021,53.09766,-1.38376,22550
381145,Alfter,1017,50.73333,7.01667,21814
387977,Al Fuḩayş,1028,32.00468,35.78088,18916
375665,Al Fujairah City,1009,25.11641,56.34141,118933
381437,Algeciras,1018,36.13326,-5.45051,116209
381436,Algemesí,1018,39.19042,-0.43572,28308
381696,Algete,1018,40.59711,-3.49743,20204
387912,Alghero,1027,40.55969,8.31953,34261
394335,Algonquin,1051,42.16558,-88.29425,30571
381435,Alhama de Murcia,1018,37.85103,-1.42507,19860
395351,Alhambra,1051,34.09529,-118.12701,85551
387022,Al-Hamdaniya,1025,36.27093,43.37758,50000
376519,Alhandra,1013,-7.43861,-34.91444,21730
381434,Alhaurín de la Torre,1018,36.66401,-4.56139,35114
381433,Alhaurín el Grande,1018,36.64300,-4.68728,23319
387072,Al Ḩayy,1025,32.17419,46.04345,78272
387071,Al Ḩillah,1025,32.46367,44.41963,455700
387070,Al Hindīyah,1025,32.54193,44.22469,57490
392372,Al Hufūf,1045,25.36467,49.58764,293179
386519,Ali,1024,28.51610,77.30993,27169
390653,Aliaga,1040,15.50000,120.84300,34020
387069,‘Alī al Gharbī,1025,32.46186,46.68794,19711
396155,Aliamanu / Salt Lakes / Foster Village,1051,21.36022,-157.91838,38833
376518,Aliança,1013,-7.60333,-35.23083,37372
386296,Alībāg,1024,18.64813,72.87579,20752
381432,Alicante,1018,38.34517,-0.48149,334757
393986,Alice,1051,27.75225,-98.06972,19408
375742,Alice Springs,1011,-23.69748,133.88362,25186
390652,Alicia,1040,16.77936,121.69734,24732
386295,Alīganj,1024,27.49358,79.17127,26652
386294,Alīgarh,1024,27.88145,78.07464,753207
387305,Alīgūdarz,1026,33.40400,49.69179,91041
392487,Alingsås,1046,57.93033,12.53345,26329
390978,Alipur,1041,29.38242,70.91106,33601
386293,Alīpur,1024,28.79862,77.13314,20736
386292,Alīpur Duār,1024,26.48350,89.52286,65232
384333,Alirajpur,1024,22.30393,74.35568,28498
395352,Aliso Viejo,1051,33.56504,-117.72712,50195
381431,Aljaraque,1018,37.26989,-7.02313,17960
387976,Al Jubayhah,1028,32.01071,35.89802,46834
392371,Al Jubayl,1045,27.01740,49.62251,237274
392370,Al Jumūm,1045,21.61951,39.69659,22207
392369,Al Khabrā’,1045,26.07179,43.62497,16906
390182,Al Khābūrah,1039,23.97144,57.09313,50223
392368,Al Khafjī,1045,28.43905,48.49132,54857
392367,Al Kharj,1045,24.15541,47.33457,425300
391332,Al Khawr,1043,25.68389,51.50583,18923
390076,Alkmaar,1036,52.63167,4.74861,94853
387065,Al Kūt,1025,32.51280,45.81817,315162
393145,Allapattah,1051,25.81454,-80.22394,54289
382383,Allauch,1020,43.33573,5.48201,21406
393987,Allen,1051,33.10317,-96.67055,98143
394654,Allendale,1051,42.97225,-85.95365,17579
394653,Allen Park,1051,42.25754,-83.21104,27425
395162,Allentown,1051,40.60843,-75.49018,120207
383194,Allerton,1021,53.36697,-2.89400,15540
395073,Alliance,1051,40.91534,-81.10593,22055
395163,Allison Park,1051,40.55951,-79.95867,21552
377910,Alliston,1014,44.15011,-79.86635,18809
392365,Al Līth,1045,20.14804,40.27224,72000
383133,Alloa,1021,56.11586,-3.78997,20390
378219,Allschwil,1015,47.55074,7.53599,18189
394518,Allston,1051,42.35843,-71.12589,28821
377911,Alma,1014,48.55009,-71.64910,29526
387064,Al Madīnah,1025,30.96324,47.26998,255000
387063,Al Maḩāwīl,1025,32.66138,44.40854,31200
387062,Al Maḩmūdīyah,1025,33.06221,44.36564,350000
381430,Almansa,1018,38.86917,-1.09713,25727
381429,Almassora,1018,39.94729,-0.06313,25831
376517,Almeirim,1013,-1.52333,-52.58167,34280
390075,Almelo,1036,52.35667,6.66250,72725
377643,Almenara,1013,-16.18361,-40.69444,29333
381428,Almendralejo,1018,38.68316,-6.40747,33588
390074,Almere Stad,1036,52.37025,5.21413,176432
381427,Almería,1018,36.83814,-2.45974,188810
392002,Al’met’yevsk,1044,54.90442,52.31540,140437
387060,Al Miqdādīyah,1025,33.97861,44.93694,50698
377642,Almirante Tamandaré,1013,-25.32472,-49.31000,89499
387059,Al Mishkhāb,1025,31.80437,44.48930,23189
392363,Al Mithnab,1045,25.86012,44.22228,33341
381426,Almonte,1018,37.26470,-6.51667,21782
386289,Almora,1024,29.59713,79.65911,32442
381425,Almoradí,1018,38.10879,-0.79197,20542
392362,Al Mubarraz,1045,25.40768,49.59028,290802
392361,Al Munayzilah,1045,25.38333,49.66667,16296
381424,Almuñécar,1018,36.73393,-3.69072,27696
387058,Al Musayyib,1025,32.77872,44.29005,57300
386288,Alnāvar,1024,15.42727,74.74111,17228
395861,Aloha,1051,45.49428,-122.86705,49425
386287,Along,1024,28.16951,94.80060,18425
389606,Alor Gajah,1035,2.38040,102.20890,20163
389686,Alor Setar,1035,6.12104,100.36014,417800
386286,Alot,1024,23.76336,75.55662,24115
393375,Alpharetta,1051,34.07538,-84.29409,63693
390073,Alphen aan den Rijn,1036,52.12917,4.65546,70251
387911,Alpignano,1027,45.09346,7.52392,16598
387021,Al Qā’im,1025,34.39251,40.98945,74100
387057,al-Qasim,1025,32.29799,44.68282,36992
392360,Al Qaţīf,1045,26.56542,50.00890,98259
387056,Al Qurnah,1025,31.01547,47.43362,286073
375679,Al Sajaah,1009,25.31532,55.63211,53079
381144,Alsdorf,1017,50.87673,6.16399,46340
381143,Alsfeld,1017,50.75185,9.27082,15945
375676,Al Shamkhah City,1009,24.39268,54.70779,61710
394336,Alsip,1051,41.66892,-87.73866,19346
390082,Alta,1037,69.96887,23.27165,15094
395353,Altadena,1051,34.18973,-118.13118,42777
377737,Alta Floresta d'Oeste,1013,-11.96806,-61.95417,21494
376516,Altamira,1013,-3.20333,-52.20639,126279
395862,Altamont,1051,42.20681,-121.73722,19257
393146,Altamonte Springs,1051,28.66111,-81.36562,43159
387910,Altamura,1027,40.82664,16.54952,70539
381142,Altdorf bei Nürnberg,1017,49.38560,11.35730,15312
381423,Altea,1018,38.59878,-0.05151,23780
381141,Altena,1017,51.29472,7.67337,20862
381140,Altenburg,1017,50.98763,12.43684,38568
376515,Altinho,1013,-8.48972,-36.05944,21185
377641,Altinópolis,1013,-21.02556,-47.37389,17156
377738,Alto Alegre,1013,2.89583,-61.49750,21096
377739,Alto Alegre do Maranhão,1013,-4.21278,-44.44639,24048
377740,Alto Alegre do Pindaré,1013,-3.67070,-45.84749,25710
377640,Alto Araguaia,1013,-17.31472,-53.21528,17657
393988,Alton,1051,26.28729,-98.31335,15760
393444,Alton,1051,38.89060,-90.18428,27003
383132,Alton,1021,51.14931,-0.97469,16584
395164,Altoona,1051,40.51868,-78.39474,45344
394304,Altoona,1051,41.64416,-93.46466,16984
377741,Alto Paraíso,1013,-9.72283,-63.31022,16320
376514,Altos,1013,-5.03806,-42.46000,47453
383131,Altrincham,1021,53.38752,-2.34848,41548
393867,Altus,1051,34.63813,-99.33398,19214
392358,Al-`Ula,1045,26.60853,37.92316,32413
377742,Alumínio,1013,-23.53500,-47.26194,17591
393062,Alushta,1050,44.67728,34.40970,29586
386379,Aluva,1024,10.10764,76.35158,24108
387089,Alvand,1026,36.18930,50.06430,90000
387303,Alvand,1026,36.31885,49.16773,74889
377710,Alvarães,1013,-3.22083,-64.80417,16670
377639,Álvares Machado,1013,-22.07944,-51.47194,28250
393989,Alvin,1051,29.42385,-95.24410,25791
376937,Alvorada,1013,-30.00018,-51.07632,187315
392356,Al Wajh,1045,26.23094,36.46492,26636
391331,Al Wakrah,1043,25.17151,51.60337,26436
386285,Alwar,1024,27.56246,76.62500,283228
386284,Alwaye,1024,10.10649,76.35484,23703
381139,Alzenau in Unterfranken,1017,50.08880,9.06455,18932
381138,Alzey,1017,49.74657,8.11513,18241
381442,Alzira,1018,39.15000,-0.43333,44690
389092,Ama,1029,35.18307,136.79970,86126
390651,Amadeo,1040,14.17056,120.92361,16618
388610,Amagasaki,1029,34.71667,135.41667,459593
388609,Amagi,1029,33.41804,130.65413,42312
383607,Amahai,1022,-3.33984,128.91975,47653
388973,Amakusa,1029,32.45861,130.19306,83082
386283,Amalāpuram,1024,16.57868,82.00609,53231
386282,Amalner,1024,21.03983,75.05887,97369
377638,Amambai,1013,-23.10417,-55.22583,39325
388970,Amami,1029,28.37690,129.49379,41390
390977,Aman Garh,1041,34.00584,71.92971,25723
376513,Amaraji,1013,-8.38306,-35.45250,18471
376512,Amarante,1013,-6.24316,-42.84544,17234
376511,Amarante do Maranhão,1013,-5.56667,-46.74222,37085
389506,Amarapura,1034,21.90709,96.04894,237618
386782,Amaravati,1024,16.51400,80.51600,103000
390146,Amargaḍhi̇̄,1038,29.29922,80.58333,19014
377637,Amargosa,1013,-13.03028,-39.60472,22530
395791,Amarillo,1051,35.22200,-101.83130,198645
386280,Amarpātan,1024,24.31371,80.97703,19409
386279,Amarpur,1024,25.03967,86.90247,25336
386278,Ambad,1024,19.61301,75.78906,31553
386277,Ambāh,1024,26.70423,78.22678,47177
386862,Ambaji,1024,24.33174,72.84564,17753
386276,Ambājogāi,1024,18.73312,76.38616,74114
386275,Ambāla,1024,30.36099,76.79782,195153
389430,Ambalangoda,1033,6.23550,80.05380,56783
386882,Ambala Sadar,1024,30.33544,76.86265,104974
386718,Amballūr,1024,10.43431,76.26341,29341
383606,Ambarawa,1022,-7.26333,110.39750,63193
386281,Ambarnath,1024,19.20000,73.16667,253475
386274,Ambasamudram,1024,8.71068,77.45190,32020
386273,Ambattūr,1024,13.09818,80.16152,341049
381137,Amberg,1017,49.44287,11.86267,44737
386272,Ambikāpur,1024,23.11892,83.19537,121071
386735,Ambikāpuram,1024,10.79385,76.65303,28592
383605,Ambon,1022,-3.69583,128.18333,347288
386271,Ambur,1024,12.79163,78.71644,109873
377636,Americana,1013,-22.73917,-47.33139,246655
395354,American Canyon,1051,38.17492,-122.26080,20554
396036,American Fork,1051,40.37690,-111.79576,28326
377635,Américo Brasiliense,1013,-21.72444,-48.10167,33757
393376,Americus,1051,32.07239,-84.23269,16028
390072,Amersfoort,1036,52.15500,5.38750,139914
383130,Amersham,1021,51.66667,-0.61667,21731
383160,Amersham on the Hill,1021,51.67468,-0.60742,17719
394305,Ames,1051,42.03471,-93.61994,65060
394519,Amesbury,1051,42.85842,-70.93005,18313
386270,Amet,1024,25.30609,73.92580,17434
394520,Amherst,1051,42.36723,-72.51852,39833
394928,Amherst,1051,42.97839,-78.79976,122366
394521,Amherst Center,1051,42.37537,-72.51925,19065
388772,Ami,1029,36.03333,140.20000,48553
382382,Amiens,1020,49.90000,2.30000,143086
386269,Amīngarh,1024,16.05662,75.94773,15073
386268,Amla,1024,21.92485,78.12786,30215
386267,Āmlāgora,1024,22.84616,87.33559,19038
386990,Amlai,1024,23.19838,81.58064,30354
383486,Amlapura,1022,-8.45000,115.61667,31869
383631,Amlapura city,1022,-8.44869,115.60621,31869
386266,Āmli,1024,20.28333,73.01667,33369
387973,Amman,1028,31.95522,35.94503,1275857
383129,Ammanford,1021,51.79279,-3.98833,23709
392741,Amnat Charoen,1048,15.85851,104.62883,34769
386265,Amod,1024,21.99317,72.87047,18742
387302,Āmol,1026,36.46961,52.35072,199382
376510,Amontada,1013,-3.36167,-39.83167,42156
381695,Amorebieta,1018,43.21667,-2.73333,17842
377912,Amos,1014,48.56688,-78.11624,17918
389651,Ampang,1035,3.15000,101.76667,126285
389429,Ampara,1033,7.29754,81.68202,43720
377634,Amparo,1013,-22.70111,-46.76444,72677
392742,Amphoe Sikhiu,1048,14.89944,101.70833,28681
381694,Amposta,1018,40.70995,0.57856,21240
383128,Ampthill,1021,52.02694,-0.49567,20026
386264,Amravati,1024,20.93333,77.75000,647057
386263,Amreli,1024,21.59983,71.21169,117967
386262,Amritsar,1024,31.62234,74.87534,1092450
386261,Amroha,1024,28.90314,78.46984,176253
386260,Amroli,1024,21.25084,72.83878,17082
390071,Amstelveen,1036,52.30083,4.86389,79639
390070,Amsterdam,1036,52.37403,4.88969,741636
394929,Amsterdam,1051,42.93869,-74.18819,18008
386259,Āmta,1024,22.58344,88.01039,16753
386258,Amudālavalasa,1024,18.41025,83.90295,39799
383604,Amuntai,1022,-2.41773,115.24941,55560
392270,Amursk,1044,50.23685,136.88136,46993
393061,Amvrosiivka,1050,47.79273,38.47820,17998
395951,Anacortes,1051,48.51260,-122.61267,16403
392290,Anadyr,1044,64.73424,177.51030,15604
387086,‘Anah,1025,34.36857,41.98194,27000
395355,Anaheim,1051,33.83529,-117.91450,350742
376509,Anajás,1013,-0.98667,-49.94000,28011
376508,Anajatuba,1013,-3.26444,-44.61972,25322
386256,Anakapalle,1024,17.69134,83.00395,86519
389756,Anak Bukit,1035,6.18400,100.37752,16525
392518,Anak Bukit,1047,1.34067,103.77301,22960
386257,Anamalais,1024,10.58303,76.93441,16131
388608,Anamizu,1029,37.23333,136.90000,17840
388607,Anan,1029,33.91667,134.65000,70285
386255,Anand,1024,22.55251,72.95520,209410
386254,Anandpur,1024,31.23926,76.50253,15229
376507,Ananindeua,1013,-1.36556,-48.37222,433956
386253,Anantapur,1024,14.67784,77.60813,267161
386252,Anantnag,1024,33.73068,75.15418,150592
392001,Anapa,1044,44.89497,37.31623,53600
377633,Anápolis,1013,-16.32667,-48.95278,319587
377743,Anapu,1013,-3.47222,-51.19778,31850
387301,Anār,1026,30.87066,55.27025,15532
377632,Anastácio,1013,-20.48361,-55.80694,24114
387300,‘Anbarābād,1026,28.47590,57.84800,18185
379466,Anbu,1016,23.44895,116.68092,162964
378148,Ancaster,1014,43.21806,-79.98716,40557
386932,Ancharakandy,1024,11.88410,75.48501,23030
377631,Anchieta,1013,-20.80583,-40.64556,29984
396057,Anchorage,1051,61.21806,-149.90028,289600
387909,Ancona,1027,43.60717,13.51030,89994
379755,Anda,1016,46.44867,125.30161,181271
386859,Andada,1024,21.65588,73.02151,16730
381136,Andernach,1017,50.43109,7.40425,29599
394481,Anderson,1051,40.10532,-85.68025,55305
393908,Anderson,1051,34.50344,-82.65013,27335
387299,Andīmeshk,1026,32.46150,48.35368,135116
386251,Āndippatti,1024,9.99797,77.62097,24448
375729,Andkhōy,1010,36.95293,65.12376,29208
386249,Andol,1024,17.81458,78.07713,24645
389338,Andong,1031,36.56636,128.72275,153348
383127,Andover,1021,51.21135,-1.49393,42276
394728,Andover,1051,45.23330,-93.29134,32213
377630,Andradas,1013,-22.06806,-46.56917,26772
377629,Andradina,1013,-20.89611,-51.37944,61473
392000,Andreyevskoye,1044,55.55487,37.92566,20000
387908,Andria,1027,41.23117,16.29797,99784
391313,Andrychów,1042,49.85497,19.33834,21954
381422,Andújar,1018,38.03922,-4.05077,39111
386248,Anekal,1024,12.71110,77.69557,44260
379464,Anfu,1016,29.35937,105.46742,40268
379501,Anfu,1016,34.97278,105.63028,32146
386247,Angamāli,1024,10.19055,76.38789,34399
392269,Angarsk,1044,52.55968,103.91413,243158
390650,Angat,1040,14.92850,121.03000,41235
377628,Angatuba,1013,-23.48972,-48.41278,24512
390649,Angeles City,1040,15.15000,120.58333,299391
392486,Ängelholm,1046,56.24280,12.86219,23240
381135,Angermünde,1017,53.01499,13.99924,15453
382381,Angers,1020,47.47156,-0.55202,168279
382380,Anglet,1020,43.48921,-1.51921,40658
393990,Angleton,1051,29.16941,-95.43188,19429
392510,Ang Mo Kio New Town,1047,1.38028,103.83972,159340
390648,Angono,1040,14.52660,121.15360,87199
382379,Angoulême,1020,45.64997,0.15345,49468
377627,Angra dos Reis,1013,-23.00667,-44.31806,179120
387907,Angri,1027,40.73815,14.57070,31632
386246,Angul,1024,20.84089,85.10192,44386
378339,Anguo,1016,34.83056,116.81944,82181
379463,Anhua,1016,33.50528,105.04782,29916
377626,Anicuns,1013,-16.46111,-49.96167,18503
386245,Anjad,1024,22.04171,75.05519,26289
386244,Anjangaon,1024,21.16516,77.30910,56380
386243,Anjār,1024,23.11316,70.02671,87183
387972,‘Anjarah,1028,32.30667,35.75443,17634
379462,Anjiang,1016,27.31944,110.10306,55421
388606,Anjō,1029,34.95828,137.08054,188693
379461,Anju,1016,29.99066,106.03186,21000
378544,Ankang,1016,32.68000,109.01722,870126
394306,Ankeny,1051,41.72971,-93.60577,56764
396298,An Khê,1052,13.95000,108.65000,81600
386666,Anklav,1024,22.37738,73.00072,21003
386242,Ankleshwar,1024,21.63236,72.99001,89457
386869,Anklesvar INA,1024,21.61675,73.02759,24789
386241,Ankola,1024,14.66049,74.30470,22249
379533,Anlan,1016,29.24722,106.59417,31546
379460,Anliu,1016,23.69824,115.67953,115560
379459,Anlong,1016,25.10000,105.51667,86416
379458,Anlu,1016,31.25750,113.67833,71198
389505,Ann,1034,19.79537,94.04791,119714
391999,Anna,1044,51.48993,40.41920,19148
381134,Annaberg-Buchholz,1017,50.57953,13.00627,23092
388605,Annaka,1029,36.33011,138.89585,57013
394149,Annandale,1051,38.83039,-77.19637,41008
393577,Annapolis,1051,38.97859,-76.49184,40812
394655,Ann Arbor,1051,42.27756,-83.74088,117070
382378,Annecy,1020,45.90878,6.12565,49232
382377,Annecy-le-Vieux,1020,45.91971,6.14393,21521
382376,Annemasse,1020,46.19439,6.23775,28275
396297,An Nhơn,1052,13.88579,109.10823,308396
386240,Annigeri,1024,15.42513,75.43350,28267
392353,An Nimas,1045,19.14547,42.12009,24153
379018,Anning,1016,24.92271,102.48496,106795
392023,Annino,1044,55.58316,37.26019,30000
394242,Anniston,1051,33.65983,-85.83163,22347
382375,Annonay,1020,45.23992,4.67070,18423
387053,An Nu‘mānīyah,1025,32.55621,45.41293,110000
386239,Annur,1024,11.23616,77.10514,19962
394729,Anoka,1051,45.19774,-93.38718,17350
377709,Anori,1013,-3.77278,-61.64417,17932
379456,Anping,1016,30.96384,109.34504,24767
379455,Anqing,1016,30.51365,117.04723,804493
379454,Anqiu,1016,36.43417,119.19250,364208
389337,Ansan-si,1031,37.32361,126.82194,623256
381133,Ansbach,1017,49.30481,10.59310,31839
389336,Anseong,1031,37.01083,127.27028,69255
379754,Anshan,1016,41.12361,122.99000,1450000
386238,Anshing,1024,20.04090,77.31501,19000
379453,Anshun,1016,26.25000,105.93333,765313
395291,Ansonia,1051,41.34621,-73.07900,18854
386237,Anta,1024,25.15000,76.30000,30598
395356,Antelope,1051,38.70824,-121.32995,45770
381421,Antequera,1018,37.01938,-4.56123,45168
386250,Anthiyur,1024,11.57506,77.59043,20436
382374,Antibes,1020,43.58127,7.12487,76393
395357,Antioch,1051,38.00492,-121.80579,110542
390647,Antipolo,1040,14.62578,121.12251,887399
377625,Antonina,1013,-25.42861,-48.71194,16152
382373,Antony,1020,48.75329,2.29668,59845
393060,Antratsyt,1050,48.11503,39.09128,52150
383126,Antrim,1021,54.71750,-6.21100,19661
379643,Antu,1016,43.10247,128.90848,58872
386236,Anūpgarh,1024,29.19111,73.20861,33309
386235,Anūppur,1024,23.10344,81.69083,19899
386234,Anūpshahr,1024,28.35748,78.26914,25306
389428,Anuradhapura,1033,8.31223,80.41306,60943
379991,Anwen,1016,28.68001,106.75651,30553
379996,Anxiang,1016,38.38339,114.54046,38345
378409,Anyang,1016,36.09600,114.38278,1146839
389335,Anyang-si,1031,37.39250,126.92694,595644
379451,Anyuan,1016,34.88083,105.27639,40828
392199,Anzhero-Sudzhensk,1044,56.07568,86.02434,82526
387906,Anzio,1027,41.45263,12.62157,45403
389046,Aoi,1029,35.77432,139.81654,17422
388836,Aomori,1029,40.81667,140.73333,298394
386233,Aonla,1024,28.27402,79.16521,50011
387905,Aosta,1027,45.73764,7.31722,35261
379449,Aoxi,1016,27.42589,115.83643,82717
395813,Apache Junction,1051,33.41505,-111.54958,38074
390646,Apalit,1040,14.95333,120.77000,77418
377624,Aparecida,1013,-22.84694,-45.22972,33223
377744,Aparecida de Goiânia,1013,-16.82333,-49.24389,510770
377623,Aparecida do Taboado,1013,-20.08667,-51.09361,27674
390645,Aparri,1040,18.35660,121.64060,33230
390667,Apas,1040,10.34076,123.90261,22566
391998,Apatity,1044,67.58267,33.41339,61186
390069,Apeldoorn,1036,52.21000,5.96944,136670
379921,Apengjiang,1016,29.15196,108.74289,18596
393750,Apex,1051,35.73265,-78.85029,45585
377622,Apiaí,1013,-24.50944,-48.84250,24886
377895,Apicum-Açu,1013,-1.52823,-45.07862,17519
376505,Apodi,1013,-5.66417,-37.79889,36093
381132,Apolda,1017,51.02624,11.51638,24793
393147,Apopka,1051,28.67617,-81.51186,48382
393059,Apostolove,1050,47.65983,33.71952,15828
396296,Ấp Phước Tĩnh,1052,10.40000,107.18333,22106
395234,Appleton,1051,44.26193,-88.41538,74139
395358,Apple Valley,1051,34.50083,-117.18588,72174
394730,Apple Valley,1051,44.73191,-93.21772,51221
391997,Aprelevka,1044,55.55194,37.08010,17780
387904,Aprilia,1027,41.59452,12.65419,74977
391996,Apsheronsk,1044,44.45990,39.73005,40451
377621,Apucarana,1013,-23.55083,-51.46083,107085
377745,Apuí,1013,-7.19722,-59.89139,21735
387978,Aqaba,1028,29.52667,35.00778,95048
387356,Āq Qalā,1026,37.01390,54.45504,35116
387052,‘Aqrah,1025,36.76038,43.89428,23000
378303,Aqsu,1016,41.18418,80.27921,535657
377620,Aquidabã,1013,-10.28139,-37.01861,20131
377619,Aquidauana,1013,-20.47111,-55.78722,48561
376504,Aquiraz,1013,-3.90139,-38.39111,65116
376503,Araçagi,1013,-6.85306,-35.38111,16646
377618,Aracaju,1013,-10.91111,-37.07167,664908
377617,Araçariguama,1013,-23.43861,-47.06139,22168
376502,Aracati,1013,-4.56167,-37.76972,44293
377616,Araçatuba,1013,-21.20889,-50.43278,170024
377615,Araci,1013,-11.33333,-38.96667,15088
376501,Aracoiaba,1013,-4.37111,-38.81417,25553
376500,Araçoiaba,1013,-7.79028,-35.09083,19936
377614,Araçoiaba da Serra,1013,-23.50528,-47.61417,33656
377613,Aracruz,1013,-19.82028,-40.27333,94765
377612,Araçuaí,1013,-16.84972,-42.07028,22005
383718,Arad,1023,31.25882,35.21282,27967
389813,Ara Damansara,1035,3.11898,101.58656,60000
377611,Aragarças,1013,-15.89750,-52.25083,18390
376499,Araguaína,1013,-7.19111,-48.20722,105019
377610,Araguari,1013,-18.64722,-48.18722,96565
376498,Araguatins,1013,-5.65084,-48.11119,33205
388603,Arai,1029,37.00059,138.22590,27481
388604,Arai,1029,34.68333,137.56667,16975
376497,Araioses,1013,-2.89000,-41.90306,39052
387298,Arāk,1026,34.09493,49.69809,503647
386231,Arakkonam,1024,13.08449,79.67053,79080
378301,Aral,1016,40.54184,81.26566,260000
386230,Arāmbāgh,1024,22.88333,87.78333,60639
377746,Arame,1013,-4.88583,-46.00500,25517
392198,Aramil,1044,56.69770,60.83690,15237
387297,Ārān Bīdgol,1026,34.05751,51.48291,65404
381693,Aranda de Duero,1018,41.67041,-3.68920,32928
386229,Arang,1024,21.19639,81.96912,19091
386228,Ārangaon,1024,19.02681,74.71487,29591
381692,Aranjuez,1018,40.03108,-3.60246,54055
386226,Arantāngi,1024,10.17235,78.99118,35621
392740,Aranyaprathet,1048,13.69276,102.50128,20236
389054,Arao,1029,32.97888,130.44572,53675
376496,Arapiraca,1013,-9.75250,-36.66111,243661
377609,Arapongas,1013,-23.41944,-51.42444,97512
377608,Araquari,1013,-26.37000,-48.72222,45283
392352,Arar,1045,30.97531,41.03808,148540
383717,‘Ar‘ara,1023,32.49553,35.09411,24904
383725,‘Ar‘ara BaNegev,1023,31.16046,35.02274,17640
377607,Araranguá,1013,-28.93575,-49.49538,71922
377606,Araraquara,1013,-21.79444,-48.17556,168468
377605,Araras,1013,-22.35694,-47.38417,135331
376495,Arari,1013,-3.45361,-44.78000,29472
386225,Arāria,1024,26.14934,87.51323,79021
376494,Araripe,1013,-7.21337,-40.13700,19783
376493,Araripina,1013,-7.57611,-40.49833,90104
377604,Araruama,1013,-22.87278,-42.34306,137773
376492,Araruna,1013,-6.55833,-35.74167,17189
388971,Arashiyama,1029,35.01481,135.67755,50000
377603,Araucária,1013,-25.59306,-49.41028,111302
377602,Araxá,1013,-19.59333,-46.94056,82595
390644,Arayat,1040,15.15050,120.76970,87987
383125,Arbroath,1021,56.56317,-2.58736,23640
393578,Arbutus,1051,39.25455,-76.69997,20483
395359,Arcadia,1051,34.13973,-118.03534,58408
395816,Arcata,1051,40.86652,-124.08284,17843
381420,Archena,1018,38.11631,-1.30043,18202
383202,Archway,1021,51.56733,-0.13415,215667
387903,Arcore,1027,45.62675,9.32454,16690
377601,Arcos,1013,-20.28194,-45.53944,33355
381419,Arcos de la Frontera,1018,36.75075,-5.81056,31210
386224,Arcot,1024,12.90569,79.31897,51943
376491,Arcoverde,1013,-8.41889,-37.05389,82003
382372,Arcueil,1020,48.79993,2.33256,17308
387296,Ardabīl,1026,38.24980,48.29330,410753
387295,Ardakān,1026,32.31001,54.01747,58834
387902,Ardea,1027,41.60742,12.54158,17078
396100,Arden-Arcade,1051,38.60250,-121.37854,92186
387294,Ardestān,1026,33.37939,52.36981,16058
393868,Ardmore,1051,34.17426,-97.14363,25176
391995,Ardon,1044,43.17888,44.29464,18313
376490,Areia,1013,-6.96333,-35.69167,22633
377600,Areia Branca,1013,-10.75778,-37.31528,18081
376489,Areia Branca,1013,-4.95611,-37.13694,24093
380165,Arele,1016,36.81295,81.66687,17941
380144,Arele,1016,38.38008,77.31324,17398
390116,Arendal,1037,58.46151,8.77253,30916
381691,Arenys de Mar,1018,41.58190,2.54936,15307
386463,Areraj,1024,26.55030,84.68010,26014
387901,Arese,1027,45.55048,9.07741,19138
380161,Arewusitang,1016,43.79773,81.52435,19986
387900,Arezzo,1027,43.46276,11.88068,100734
381690,Arganda,1018,40.30076,-3.43722,51489
382371,Argentan,1020,48.74441,-0.02023,18230
382370,Argenteuil,1020,48.94788,2.24744,101475
391994,Argun,1044,43.29289,45.86691,28100
387899,Ariccia,1027,41.72063,12.67230,17487
389090,Arida,1029,34.08089,135.11905,26755
383723,Ariel,1023,32.10650,35.18449,20540
390976,Arifwala,1041,30.29058,73.06574,87360
390990,Arif Wala,1041,26.32478,66.29587,157063
390643,Aringay,1040,16.39400,120.35450,29825
377747,Aripuanã,1013,-10.17647,-59.44913,26010
377708,Ariquemes,1013,-9.91333,-63.04083,96833
388602,Arita,1029,33.18333,129.90000,19010
378276,Arix,1016,36.75541,81.60765,17941
386931,Ariyallur,1024,11.08328,75.84904,22558
386223,Ariyalūr,1024,11.13849,79.07556,29144
383603,Arjawinangun,1022,-6.64528,108.41028,105845
386222,Arkalgūd,1024,12.76171,76.06035,16810
391993,Arkhangel’sk,1044,64.54717,40.55291,349742
382369,Arles,1020,43.67681,4.63031,53431
394522,Arlington,1051,42.41537,-71.15644,42844
393991,Arlington,1051,32.73569,-97.10807,388125
395952,Arlington,1051,48.19871,-122.12514,18949
394150,Arlington,1051,38.88101,-77.10428,207627
394337,Arlington Heights,1051,42.08836,-87.98063,75926
377599,Armação dos Búzios,1013,-22.74694,-41.88167,42442
391992,Armavir,1044,44.99849,41.11472,199548
382368,Armentières,1020,50.68568,2.88214,26646
375794,Armidale,1011,-30.50123,151.66553,24504
381418,Armilla,1018,37.14386,-3.62534,21380
393058,Armyansk,1050,46.10919,33.69206,24442
390068,Arnhem,1036,51.98000,5.91111,141674
386227,Arni,1024,12.66771,79.28529,62858
393670,Arnold,1051,38.43283,-90.37762,21357
383124,Arnold,1021,53.00000,-1.13333,37873
393579,Arnold,1051,39.03206,-76.50274,23106
381131,Arnsberg,1017,51.38333,8.08333,76612
381130,Arnstadt,1017,50.84048,10.95198,25678
376488,Aroeiras,1013,-7.54528,-35.70750,18705
386221,Āron,1024,24.38109,77.41739,28010
381417,Arona,1018,28.09962,-16.68102,78614
386558,Aroor,1024,9.86940,76.30498,39214
387951,Arpino,1027,40.88882,14.32015,19988
386232,Arrah,1024,25.55629,84.66335,261430
377598,Arraial do Cabo,1013,-22.96611,-42.02778,32794
387971,Ar Ramthā,1028,32.55873,36.00816,155693
382367,Arras,1020,50.29301,2.78186,47052
381576,Arrasate / Mondragón,1018,43.06441,-2.48977,22019
392351,Ar Rass,1045,25.86944,43.49730,81728
391330,Ar Rayyān,1043,25.29194,51.42444,272465
381416,Arrecife,1018,28.96302,-13.54769,59127
377597,Arroio do Meio,1013,-29.40111,-51.94500,21958
377595,Arroio Grande,1013,-32.23750,-53.08694,17558
381415,Arroyo de la Miel,1018,36.59917,-4.53505,17763
395360,Arroyo Grande,1051,35.11859,-120.59073,18108
381689,Arroyomolinos,1018,40.26951,-3.91946,31396
387050,Ar Rumaythah,1025,31.52845,45.20377,47248
387049,Ar Ruţbah,1025,33.03718,40.28586,22370
375663,Ar Ruways,1009,24.11028,52.73056,25000
392268,Arsen’yev,1044,44.15282,133.27713,58700
386220,Arsikere,1024,13.31446,76.25704,53216
391991,Arsk,1044,56.09151,49.87783,17243
381688,Arteixo,1018,43.30482,-8.50749,29762
392267,Artëm,1044,43.35752,132.19138,102300
392197,Artëmovskiy,1044,57.35422,61.87121,33700
395361,Artesia,1051,33.86585,-118.08312,16961
375726,Ārt Khwājah,1010,37.08571,69.47958,18623
377594,Artur Nogueira,1013,-22.57306,-47.17250,53157
381414,Arucas,1018,28.11983,-15.52325,36259
377593,Arujá,1013,-23.39611,-46.32083,91157
386219,Arukutti,1024,9.86667,76.35000,17944
386218,Arumuganeri,1024,8.56880,78.09091,25151
386217,Aruppukkottai,1024,9.50960,78.09588,85369
395723,Arvada,1051,39.80276,-105.08748,115368
386216,Ārvi,1024,20.99585,78.22914,42822
395362,Arvin,1051,35.20913,-118.82843,20876
386215,Arwal,1024,25.24281,84.66571,51849
391990,Arzamas,1044,55.39563,43.83810,109479
387898,Arzano,1027,40.90959,14.26519,34933
391989,Arzgir,1044,45.37411,44.21980,15838
387897,Arzignano,1027,45.52027,11.33446,21247
375728,Asadābād,1010,34.87311,71.14697,48400
387293,Asadābād,1026,34.78241,48.12012,59617
388601,Asagaya-minami,1029,35.70206,139.63745,19185
388771,Asahi,1029,35.71667,140.65000,64690
388835,Asahikawa,1029,43.77063,142.36489,333530
388630,Asaka,1029,35.80472,139.60194,141083
389168,Asakuchi,1029,34.53484,133.60302,32772
389170,Asakura,1029,33.41439,130.71877,50273
389271,Asan,1031,36.78361,127.00417,97749
386214,Āsandh,1024,29.52119,76.60552,27125
386213,Āsansol,1024,23.68333,86.98333,504271
392196,Asbest,1044,57.00816,61.46344,74583
394829,Asbury Park,1051,40.22039,-74.01208,15818
381128,Aschaffenburg,1017,49.97704,9.15214,68551
381127,Ascheberg,1017,51.78333,7.61667,15184
381126,Aschersleben,1017,51.75742,11.46084,24892
387896,Ascoli Piceno,1027,42.85351,13.57395,41741
383123,Ascot,1021,51.41082,-0.67480,17899
391988,Asha,1044,54.99982,57.25491,33006
394151,Ashburn,1051,39.04372,-77.48749,43511
383716,Ashdod,1023,31.79213,34.64966,226838
393751,Asheboro,1051,35.70791,-79.81364,26103
393752,Asheville,1051,35.60095,-82.55402,95056
383121,Ashford,1021,51.43173,-0.45761,27382
383122,Ashford,1021,51.14648,0.87376,62787
388834,Ashibetsu,1029,43.50972,142.18556,19108
388600,Ashikaga,1029,36.33333,139.45000,144746
383120,Ashington,1021,55.17719,-1.56412,27670
388599,Ashiya,1029,34.72807,135.30264,93922
383715,Ashkelon,1023,31.66926,34.57149,144073
395363,Ashland,1051,37.69465,-122.11385,21925
395863,Ashland,1051,42.19458,-122.70948,20861
394523,Ashland,1051,42.26121,-71.46340,15802
395074,Ashland,1051,40.86867,-82.31822,20317
393509,Ashland,1051,38.47841,-82.63794,21108
394524,Ashmont,1051,42.28343,-71.06894,30000
386212,Ashoknagar,1024,24.57578,77.73123,81828
386420,Ashoknagar Kalyangarh,1024,22.86416,88.63701,111475
392388,Ash Shafā,1045,21.07268,40.31842,72190
387048,Ash Shāmīyah,1025,31.96257,44.60075,57661
387047,Ash Shaţrah,1025,31.40906,46.17270,82732
386211,Ashta,1024,16.94943,74.40936,37105
386210,Ashta,1024,23.01754,76.72208,53184
395075,Ashtabula,1051,41.86505,-80.78981,18371
383119,Ashton in Makerfield,1021,53.48333,-2.65000,29039
383118,Ashton-under-Lyne,1021,53.48876,-2.09890,43675
375896,Āshuganj City,1012,24.04016,91.01170,180654
395235,Ashwaubenon,1051,44.48221,-88.07010,17176
390642,Asia,1040,9.55060,122.51640,23546
386209,Asifābād,1024,19.35851,79.28415,21213
386208,Āsika,1024,19.61114,84.65998,21134
386207,Āsind,1024,25.73420,74.33278,15389
392195,Asino,1044,56.99918,86.15518,27070
390115,Asker,1037,59.83333,10.43721,61906
375727,Āsmār,1010,35.03333,71.35809,15708
382366,Asnières-sur-Seine,1020,48.91667,2.28333,86742
388839,Aso,1029,32.93726,131.08008,27039
381413,Aspe,1018,38.34511,-0.76721,20180
393580,Aspen Hill,1051,39.07955,-77.07303,48759
387969,As Salţ,1028,32.03917,35.72722,107874
387045,As Samawah,1025,31.33198,45.29440,152890
376487,Assaré,1013,-6.87444,-39.87500,21697
387439,Assemini,1027,39.29123,8.99879,25257
390067,Assen,1036,52.99667,6.56250,62237
390066,Assendelft,1036,52.46833,4.74306,24230
377592,Assis,1013,-22.66167,-50.41222,105087
377748,Assis Chateaubriand,1013,-24.42000,-53.52139,36808
388598,Asso,1029,33.70000,135.41667,15236
387044,As Sulaymānīyah,1025,35.56496,45.43290,878146
392349,As Sulayyil,1045,20.46067,45.57792,24097
390178,As Suwayq,1039,23.84944,57.43861,107143
387043,Aş Şuwayrah,1025,32.92556,44.77583,42354
383602,Astanajapura,1022,-6.80170,108.63110,148047
387292,Āstāneh-ye Ashrafīyeh,1026,37.26318,49.94325,42784
387291,Āstārā,1026,38.43084,48.86994,39065
387895,Asti,1027,44.90162,8.20751,74348
377591,Astorga,1013,-23.23250,-51.66556,20128
391987,Astrakhan,1044,46.34968,48.04076,533925
376486,Atalaia,1013,-9.50194,-36.02278,38530
377707,Atalaia do Norte,1013,-4.36652,-70.19186,15892
381412,Atamaría,1018,37.59989,-0.80682,30000
383601,Atambua,1022,-9.10611,124.89250,82196
388597,Atami,1029,35.08834,139.05325,34233
381411,Atarfe,1018,37.22479,-3.68686,15399
386206,Atarra,1024,25.28618,80.57155,46168
395364,Atascadero,1051,35.48942,-120.67073,29819
386205,Āthagarh,1024,20.51999,85.62965,16665
386204,Athani,1024,16.72613,75.06421,47842
393832,Athens,1051,39.32924,-82.10126,25044
393377,Athens,1051,33.96095,-83.37794,127315
394243,Athens,1051,34.80243,-86.97219,24966
383117,Atherton,1021,53.52371,-2.49354,20149
382365,Athis-Mons,1020,48.70522,2.39147,31225
386972,Athiyannur,1024,8.39300,77.06371,40712
386948,Atholi,1024,11.38853,75.75970,28213
377590,Atibaia,1013,-23.11694,-46.55028,144088
390641,Atimonan,1040,14.00270,121.92078,29356
391986,Atkarsk,1044,51.87185,45.00775,27554
393378,Atlanta,1051,33.74900,-84.38798,510823
393811,Atlantic City,1051,39.36415,-74.42306,39260
386202,Atmakūr,1024,15.88109,78.58704,35137
386201,Atraulī,1024,28.02964,78.28571,47512
387987,Atsugi,1029,35.44272,139.36931,223960
387968,Aţ Ţafīlah,1028,30.83752,35.60442,25429
392347,Aţ Ţaraf,1045,25.36232,49.72757,21386
381125,Attendorn,1017,51.12645,7.90333,24773
386200,Attibele,1024,12.77809,77.77259,20532
386199,Attili,1024,16.70000,81.60000,68196
386198,Attingal,1024,8.69609,76.81507,37346
394525,Attleboro,1051,41.94454,-71.28561,44284
390975,Attock City,1041,33.76671,72.35977,85479
386197,Attur,1024,11.59414,78.60143,58702
395365,Atwater,1051,37.34772,-120.60908,29237
382364,Aubagne,1020,43.29276,5.57067,44844
382363,Aubervilliers,1020,48.91667,2.38333,70914
394244,Auburn,1051,32.60986,-85.48078,62059
395953,Auburn,1051,47.30732,-122.22845,77006
394930,Auburn,1051,42.93173,-76.56605,26985
394526,Auburn,1051,42.19454,-71.83563,16724
394638,Auburn,1051,44.09785,-70.23117,22871
393148,Auburndale,1051,28.06530,-81.78869,15035
394656,Auburn Hills,1051,42.68753,-83.23410,22672
382362,Auch,1020,43.64561,0.58856,24494
382361,Audincourt,1020,47.48327,6.85341,15577
381124,Aue,1017,50.59034,12.70657,18554
381123,Auerbach,1017,50.51155,12.40083,21358
381122,Augsburg,1017,48.37154,10.89851,259196
394639,Augusta,1051,44.31062,-69.77949,18899
387438,Augusta,1027,37.24065,15.22121,30723
393379,Augusta,1051,33.47097,-81.97484,43459
376485,Augusto Corrêa,1013,-1.02167,-46.63500,44573
391114,Augustów,1042,53.84321,22.97979,29752
386494,Auhammadpur Mājri,1024,28.72922,77.03827,17462
382360,Aulnay-sous-Bois,1020,48.93814,2.49402,80615
389504,Aungban,1034,20.66060,96.63488,30982
386196,Aurād,1024,18.25397,77.41761,19849
386195,Auraiya,1024,26.46517,79.50918,70508
386194,Aurangabad,1024,19.87757,75.34226,1175116
386193,Aurangābād,1024,24.75204,84.37420,102244
386996,Aurangabad Cantonment,1024,19.87609,75.29161,18051
381121,Aurich,1017,53.46919,7.48232,40319
382359,Aurillac,1020,44.92539,2.43983,34724
394338,Aurora,1051,41.76058,-88.32007,200661
376484,Aurora,1013,-6.94250,-38.96750,23714
395076,Aurora,1051,41.31755,-81.34539,15838
395724,Aurora,1051,39.72943,-104.83192,359407
390289,Aurora,1040,13.34760,122.51950,16178
377913,Aurora,1014,44.00011,-79.46632,55445
377749,Aurora do Pará,1013,-2.13389,-47.55889,23774
386192,Ausa,1024,18.24728,76.49930,36118
394731,Austin,1051,43.66663,-92.97464,24563
393992,Austin,1051,30.26715,-97.74306,974447
395077,Austintown,1051,41.10172,-80.76452,29677
376483,Autazes,1013,-3.57972,-59.13056,45328
382358,Autun,1020,46.95104,4.29869,18283
382357,Auxerre,1020,47.79960,3.57033,41516
386191,Āvadi,1024,13.11470,80.10981,250044
386189,Avanigadda,1024,16.02148,80.91808,25761
377589,Avaré,1013,-23.09861,-48.92583,96098
393056,Avdiivka,1050,48.14019,37.75008,35826
376482,Aveiro,1013,-3.60556,-55.33167,18290
387894,Avellino,1027,40.91494,14.79103,48104
394830,Avenel,1051,40.58038,-74.28515,17011
393149,Aventura,1051,25.95648,-80.13921,37649
387893,Aversa,1027,40.97259,14.20745,52974
387892,Avezzano,1027,42.02896,13.42641,37808
382356,Avignon,1020,43.94834,4.80892,89769
381687,Ávila,1018,40.65724,-4.69951,56855
386816,Avilala,1024,13.61106,79.42080,24839
381686,Avilés,1018,43.55473,-5.92483,78715
386190,Avinashi,1024,11.19297,77.26865,24327
382355,Avion,1020,50.41038,2.83053,18470
395366,Avocado Heights,1051,34.03612,-117.99118,15411
387437,Avola,1027,36.90840,15.13937,28666
395292,Avon,1051,41.80982,-72.83065,18932
382354,Avon,1020,48.40219,2.72022,15009
395078,Avon,1051,41.45171,-82.03542,22544
393463,Avon,1051,39.76282,-86.39972,16451
395079,Avon Center,1051,41.45976,-82.01959,15724
395814,Avondale,1051,33.43560,-112.34960,80684
395080,Avon Lake,1051,41.50532,-82.02820,23453
391985,Avtury,1044,43.16345,46.00152,18370
389113,Awa,1029,34.09205,134.28452,34713
389116,Awaji,1029,34.47769,134.93065,42597
388596,Awara,1029,36.22309,136.19236,27524
380145,Awati,1016,38.60838,77.39640,25119
380162,Awuliya,1016,43.93033,81.69317,15427
388595,Ayabe,1029,35.30000,135.25000,31846
386188,Ayakudi,1024,10.44992,77.55198,24120
381410,Ayamonte,1018,37.21329,-7.40807,20334
386842,Aya Nagar,1024,28.47202,77.13270,33123
386756,Ayanavelikulangara Vadakku,1024,9.04298,76.52297,24268
386634,Āyanchēri,1024,11.62609,75.67427,26293
389089,Ayase,1029,35.43515,139.42560,83913
389768,Ayer Itam,1035,5.40158,100.27815,16974
392266,Aykhal,1044,65.93381,111.48340,15267
383116,Aylesbury,1021,51.81665,-0.81458,74748
378138,Aylmer,1014,45.40020,-75.80644,56542
386423,Aymanam,1024,9.60684,76.50055,34470
386187,Ayodhya,1024,26.79909,82.20470,53293
383115,Ayr,1021,55.46273,-4.63393,46260
387102,Āzādshahr,1026,37.08641,55.17222,47590
387090,Āzādshahr,1026,34.79049,48.57011,514102
386186,Azamgarh,1024,26.06832,83.18358,116644
380146,Azhatebage,1016,38.65883,77.46640,15846
386440,Azhikkōd,1024,11.91985,75.33549,25195
386630,Azhiyūr,1024,11.69348,75.56013,30023
386945,Azhoor,1024,8.64415,76.79897,27390
375922,Azimpur,1012,23.72980,90.38540,96641
387288,Aznā,1026,33.45643,49.45646,47489
387287,Aznā,1026,33.60950,48.93070,47482
391984,Aznakayevo,1044,54.85000,53.10000,34750
391983,Azov,1044,47.10690,39.41486,82133
388857,Azumino,1029,36.28815,137.88705,94222
381685,Azuqueca de Henares,1018,40.56566,-3.26753,32744
395367,Azusa,1051,34.13362,-117.90756,49690
387042,Az Zubayr,1025,30.39213,47.70175,122676
387982,Az̧ Z̧ulayl,1028,32.12080,36.28008,50931
392345,Az Zulfī,1045,26.29945,44.81542,125000
390640,Baao,1040,13.45490,123.36530,19612
378218,Baar,1015,47.19625,8.52954,20546
390065,Baarn,1036,52.21167,5.28750,24584
386185,Bābai,1024,22.70256,77.93494,16741
383600,Babat,1022,-7.11282,112.16354,27038
386855,Baben,1024,21.13725,73.09647,15610
381120,Babenhausen,1017,49.96519,8.95129,16920
386184,Baberu,1024,25.54711,80.70443,15607
386183,Babīna,1024,25.23947,78.47028,35538
386534,Bablāi,1024,30.35729,76.87900,26412
387286,Bābol,1026,36.55102,52.67860,202796
387285,Bābolsar,1026,36.69929,52.65011,48051
390639,Babo-Pangulo,1040,15.08333,120.51667,15066
386182,Bābra,1024,21.84577,71.30544,25270
386181,Babrāla,1024,28.26419,78.40560,16670
379447,Babu,1016,24.41667,111.51667,65603
376481,Bacabal,1013,-4.23246,-44.78164,103711
377750,Bacabeira,1013,-2.97083,-44.31556,16966
396294,Bắc Giang,1052,21.27307,106.19460,450000
386576,Bacheli,1024,18.68435,81.26861,21435
386180,Bachhraon,1024,28.92694,78.23456,29232
379446,Bachuan,1016,29.84863,106.05046,208520
396295,Bắc Kạn,1052,22.14701,105.83481,45036
394527,Back Bay,1051,42.35010,-71.08700,17577
395165,Back Mountain,1051,41.33591,-75.99631,26973
381119,Backnang,1017,48.94743,9.43718,35778
390638,Baclaran,1040,14.53194,120.99417,33850
396293,Bạc Liêu,1052,9.29414,105.72776,156110
396292,Bắc Ninh,1052,21.18608,106.07631,287658
387891,Bacoli,1027,40.79672,14.07349,25590
390637,Bacolod City,1040,10.66667,122.95000,454898
390636,Bacoor,1040,14.45896,120.93851,356974
396291,Bắc Quang,1052,22.48333,104.86667,118690
376480,Bacuri,1013,-1.72751,-45.14216,16290
386179,Bada Barabīl,1024,22.11186,85.38684,56870
386178,Badagara,1024,11.59776,75.58142,76493
381118,Bad Aibling,1017,47.86380,12.01055,17672
381409,Badajoz,1018,38.87789,-6.97061,148334
381684,Badalona,1018,41.45004,2.24741,219547
386458,Bada Malhera,1024,24.56412,79.30712,18335
386177,Bādāmi,1024,15.91495,75.67683,30943
386352,Badāmibāgh,1024,34.07381,74.85276,22214
375863,Badarganj,1012,25.67419,89.05377,32600
381129,Bad Arolsen,1017,51.37982,9.01445,16854
381117,Bad Bentheim,1017,52.30066,7.15763,15508
381116,Bad Berleburg,1017,51.05224,8.39227,20757
386384,Baddi,1024,30.95783,76.79136,29911
390974,Baddomalhi,1041,31.99042,74.66410,18435
381115,Bad Driburg,1017,51.73297,9.01969,19553
381114,Bad Dürkheim,1017,49.46180,8.17236,18698
392781,Bade,1049,24.92981,121.28372,209148
378217,Baden,1015,47.47333,8.30592,19340
381113,Baden-Baden,1017,48.76060,8.23975,55449
381112,Bad Essen,1017,52.31667,8.33333,15732
386176,Badgām,1024,34.01524,74.72074,15338
396058,Badger,1051,64.80000,-147.53333,19482
381111,Bad Harzburg,1017,51.88268,10.56157,22954
381110,Bad Hersfeld,1017,50.87197,9.70891,30725
381109,Bad Homburg vor der Höhe,1017,50.22683,8.61816,51859
381108,Bad Honnef,1017,50.64336,7.22780,25348
386462,Badi,1024,23.03667,78.08417,19603
390973,Badin,1041,24.65600,68.83700,117455
396299,Ba Dinh,1052,21.03652,105.82684,221893
390177,Badīyah,1039,22.45000,58.80000,18479
381107,Bad Kissingen,1017,50.20228,10.07784,21328
381106,Bad Kreuznach,1017,49.84140,7.86713,43213
380688,Bad Laasphe,1017,50.93139,8.42502,15184
381105,Bad Langensalza,1017,51.10771,10.64600,18183
386175,Badlapur,1024,19.15516,73.26553,174226
381104,Bad Lippspringe,1017,51.78333,8.81683,15175
381103,Bad Mergentheim,1017,49.49250,9.77361,22472
381102,Bad Münder am Deister,1017,52.19551,9.46421,18726
381101,Bad Münstereifel,1017,50.55667,6.76424,19051
381100,Bad Nauheim,1017,50.36463,8.73859,30291
386174,Badnāwar,1024,23.02181,75.23268,20917
381099,Bad Neuenahr-Ahrweiler,1017,50.54322,7.11130,27823
381098,Bad Neustadt an der Saale,1017,50.32174,10.20673,15261
381097,Bad Oeynhausen,1017,52.20699,8.80365,49513
381096,Bad Oldesloe,1017,53.81167,10.37417,24322
396201,Ba Đồn,1052,17.75353,106.42355,106413
381095,Bad Pyrmont,1017,51.98589,9.25246,21629
381094,Bad Rappenau,1017,49.23848,9.10180,20581
381093,Bad Reichenhall,1017,47.72947,12.87819,16910
392344,Badr Ḩunayn,1045,23.78292,38.79047,27257
381092,Bad Säckingen,1017,47.55371,7.94612,16549
381091,Bad Salzuflen,1017,52.08620,8.74434,54899
381090,Bad Salzungen,1017,50.81342,10.23610,16410
380431,Bad Saulgau,1017,48.01676,9.50064,17911
381089,Bad Schwartau,1017,53.91887,10.69691,19722
381088,Bad Segeberg,1017,53.93775,10.30745,16052
386173,Bādshāhpur,1024,28.39317,77.04919,15593
381087,Bad Soden am Taunus,1017,50.14080,8.50449,22871
381086,Bad Tölz,1017,47.76111,11.55890,17434
389427,Badulla,1033,6.98020,81.05770,47587
386172,Badūria,1024,22.74431,88.78655,49547
386171,Badvel,1024,14.74510,79.06288,70626
381085,Bad Vilbel,1017,50.17866,8.73756,30736
381084,Bad Waldsee,1017,47.92027,9.75490,19840
381083,Bad Wildungen,1017,51.11963,9.12475,18037
377588,Bady Bassitt,1013,-20.91806,-49.44528,27260
381082,Bad Zwischenahn,1017,53.18333,8.00000,27550
383599,Baekrajan,1022,-6.76740,110.85410,57920
381408,Baena,1018,37.61670,-4.32245,20915
381081,Baesweiler,1017,50.90964,6.18874,27834
381407,Baeza,1018,37.99384,-3.47103,16253
387284,Bāfq,1026,31.60350,55.40249,31215
387283,Bāft,1026,29.23310,56.60220,34517
386170,Bagaha,1024,24.52898,85.06019,91383
386169,Bagaha,1024,27.09918,84.09003,112634
386168,Bagalkot,1024,16.18673,75.69614,111933
389583,Bagan Serai,1035,5.01080,100.54101,20476
386167,Bagar,1024,28.18784,75.50012,15670
386166,Bagasra,1024,21.48719,70.95516,34521
391982,Bagayevskaya,1044,47.32049,40.38470,15300
386165,Bāgbahra,1024,21.04606,82.38640,19529
386667,Bagbera,1024,22.75948,86.19049,78356
386162,Bagdogra,1024,26.69929,88.31177,17372
377587,Bagé,1013,-31.33139,-54.10694,98940
380147,Bage'awati,1016,38.48908,77.54022,16951
386164,Bāgepalli,1024,13.78338,77.79667,27011
380001,Bageqi,1016,37.14071,79.83509,57153
375862,Bagerhat,1012,22.65657,89.79123,266388
390635,Baggabag B,1040,16.50588,121.19014,24967
390972,Bagh,1041,33.98111,73.77608,33548
386163,Bāgha Purāna,1024,30.68809,75.09838,23360
387041,Baghdad,1025,33.34058,44.40088,7216000
387436,Bagheria,1027,38.07892,13.51237,53149
375725,Baghlān,1010,36.13068,68.70829,108449
386161,Bāghpat,1024,28.94485,77.21865,41766
390154,Bāgluṅ,1038,28.26728,83.59956,23296
382353,Bagneux,1020,48.79565,2.30796,38900
382352,Bagnolet,1020,48.86667,2.41667,33504
387890,Bagnoli,1027,40.81322,14.16807,23333
382351,Bagnols-sur-Cèze,1020,44.16259,4.61974,19640
389458,Bago,1034,17.33521,96.48135,244376
390634,Bago City,1040,10.53333,122.83333,191210
390660,Bagong Pagasa,1040,14.66270,121.03280,46365
390669,Bagong Silang,1040,14.77830,121.04487,261729
390663,Bagong Silangan,1040,14.70600,121.10800,106886
376479,Bagre,1013,-1.89969,-50.20821,31892
390633,Baguio,1040,16.41639,120.59306,272714
386160,Bagulā,1024,23.33664,88.64109,20999
386159,Bāh,1024,26.86912,78.59385,15359
392844,Bahacheve,1050,49.01198,31.04659,15763
386158,Bahādurganj,1024,26.26172,87.82443,36993
386157,Bahadurgarh,1024,28.69287,76.93555,170767
387282,Bahār,1026,34.90720,48.44140,28645
386156,Baharampur,1024,24.10473,88.25155,180547
387334,Bahārestān,1026,32.48814,51.77312,79023
389622,Bahau,1035,2.80790,102.40490,31273
390982,Bahawalnagar,1041,30.55083,73.39083,126700
390971,Bahawalnagar,1041,29.99835,73.25272,241873
390970,Bahawalpur,1041,29.39779,71.67520,903795
390632,Bah-Bah,1040,8.60722,125.91444,28643
386155,Baheri,1024,28.77416,79.49740,63953
386154,Bahjoi,1024,28.39502,78.62659,33752
390176,Bahlā’,1039,22.97886,57.30470,54338
386153,Bahraigh,1024,27.57429,81.59474,182218
386421,Bahula,1024,23.65176,87.16475,16264
379873,Bai’anba,1016,30.76283,108.43717,91947
376478,Baião,1013,-2.79056,-49.67167,51641
380068,Baicheng,1016,36.32743,119.77875,77235
379752,Baicheng,1016,45.61751,122.83302,316970
379445,Baichihe,1016,36.11556,119.53333,42913
379834,Baidi,1016,31.05761,109.59088,56216
386152,Baidyabāti,1024,22.78498,88.32586,115504
377914,Baie-Comeau,1014,49.21679,-68.14894,21536
381080,Baiersbronn,1017,48.50318,8.37699,16248
378371,Báigōng Jiēdào,1016,30.29493,108.03372,26341
379780,Baiguan,1016,33.96617,104.91444,18129
386151,Baihar,1024,22.10133,80.54967,16650
379846,Baihe,1016,31.26348,108.46372,40937
379783,Baihe,1016,33.86974,104.85221,18077
379443,Baihecun,1016,22.11321,107.23592,63629
379442,Baihua,1016,29.09422,104.60852,41574
379895,Baijia,1016,30.01704,107.32576,19133
378300,Baijiantan,1016,45.69298,85.13942,93697
379502,Baijiawan,1016,34.69583,105.28889,20486
386150,Baikunthpur,1024,23.26206,82.56051,28431
383114,Baildon,1021,53.84711,-1.78785,15710
381406,Bailén,1018,38.09639,-3.77786,18785
394152,Baileys Crossroads,1051,38.85039,-77.12970,23643
386149,Bail-Hongal,1024,15.81370,74.85895,49182
379441,Bailin,1016,28.73599,106.46043,38564
379440,Baima,1016,29.39553,107.53939,25629
379439,Baimajing,1016,19.71195,109.21801,59585
396028,Bainbridge Island,1051,47.62621,-122.52124,23840
379751,Baiquan,1016,47.60659,126.08231,70472
386147,Bairāgnia,1024,26.74063,85.27323,42895
375793,Bairnsdale,1011,-37.82289,147.61041,15411
390631,Bais,1040,9.59111,123.12278,65594
379400,Baise,1016,23.89013,106.62684,686078
379437,Baisha,1016,29.06226,106.11890,115761
379438,Baisha,1016,21.71667,109.68333,89759
379753,Baishan,1016,41.93853,126.41965,183880
379935,Baisheng,1016,29.81351,107.39261,41114
380148,Baishikante,1016,38.45964,77.47904,39243
379750,Baishishan,1016,43.58333,127.56667,56992
379886,Báishí Zhèn,1016,30.31666,107.88247,23448
379436,Baitao,1016,29.55083,107.48688,46160
379435,Baitu,1016,30.59722,108.81140,16790
379434,Baituo,1016,34.85111,106.00167,15555
379433,Baixi,1016,28.69970,104.54917,88251
377586,Baixo Guandu,1013,-19.51889,-41.01583,30674
379418,Baiyang,1016,30.81640,108.61098,34962
379432,Baiyin,1016,36.54696,104.17023,294400
379431,Baizi,1016,30.09403,105.71297,47879
375861,Bājitpur,1012,24.21623,90.95002,34560
391981,Bakal,1044,54.94170,58.80830,21762
386500,Bakarwāla,1024,28.66780,77.02011,18122
379944,Bake,1016,29.90059,107.02290,36698
395368,Bakersfield,1051,35.37329,-119.01871,373640
393055,Bakhchysarai,1050,44.75525,33.85782,27448
393054,Bakhmach,1050,51.18144,32.83463,16862
393057,Bakhmut,1050,48.59441,37.99983,80500
386145,Bakhri,1024,25.59889,86.26074,40043
386425,Bakhtiarpur,1024,25.45598,85.53290,47897
386144,Bakhtiyārpur,1024,25.46179,85.53179,34533
383598,Baki,1022,-7.61278,110.78389,58909
389545,Bakri,1035,2.04410,102.65270,30280
391980,Baksan,1044,43.68374,43.53507,37519
391979,Balabanovo,1044,55.18161,36.66060,24232
386143,Bālāchor,1024,31.06062,76.30166,19166
387040,Balad,1025,34.01485,44.14574,42088
386142,Bālāghāt,1024,21.81560,80.18845,84261
390630,Balagtas,1040,14.81667,120.86667,59826
381683,Balaguer,1018,41.79117,0.81094,16779
383597,Balai Pungut,1022,1.05949,101.29054,56452
393053,Balaklava,1050,44.51118,33.59942,18649
393052,Balakliia,1050,49.45595,36.84433,26334
391977,Balakovo,1044,52.02782,47.80070,199572
390629,Balamban,1040,10.50390,123.71560,22283
390628,Balanga,1040,14.67611,120.53611,72954
386141,Balāngīr,1024,20.70419,83.49029,91241
383596,Balapulang,1022,-7.04858,109.10056,28483
386140,Bālāpur,1024,20.66612,76.77386,44594
386139,Balarāmpur,1024,23.09714,86.22292,22847
391976,Balashikha,1044,55.79479,37.94794,150103
391975,Balashov,1044,51.55020,43.16670,98107
386138,Balasore,1024,21.49266,86.93348,114321
390627,Balayan,1040,13.93714,120.73224,50115
393993,Balch Springs,1051,32.72874,-96.62277,25210
395166,Baldwin,1051,40.33813,-79.97894,19819
394931,Baldwin,1051,40.65649,-73.60930,24033
395369,Baldwin Park,1051,34.08529,-117.96090,77071
391974,Balezino,1044,57.97870,53.01380,16618
386137,Bāli,1024,25.19725,73.29117,19259
386135,Bāli,1024,22.64859,88.34115,296973
383595,Balikpapan,1022,-1.26753,116.82887,695287
389640,Balik Pulau,1035,5.34916,100.23938,23559
381079,Balingen,1017,48.27525,8.85464,34414
390626,Baliuag,1040,14.95472,120.89694,135679
379503,Baliwan,1016,34.84757,105.37043,31856
375724,Balkh,1010,36.75635,66.89720,114883
375792,Ballarat,1011,-37.56622,143.84957,116201
386033,Ballari,1024,15.14205,76.92398,410445
393582,Ballenger Creek,1051,39.37260,-77.43526,18274
386136,Ballia,1024,25.42139,86.31445,47550
393671,Ballwin,1051,38.59505,-90.54623,30577
383113,Ballymena,1021,54.86357,-6.27628,28932
382350,Balma,1020,43.61111,1.49944,15553
377596,Balneário Arroio do Silva,1013,-28.98688,-49.41730,15820
377585,Balneário Camboriú,1013,-26.99056,-48.63472,139155
377751,Balneário Gaivota,1013,-29.15667,-49.57944,15669
376912,Balneário Piçarras,1013,-26.76389,-48.67167,27127
377584,Balneário Rincão,1013,-28.83208,-49.23660,15981
386134,Balod,1024,20.73081,81.20578,23648
386133,Baloda Bāzār,1024,21.65678,82.16062,26632
386132,Bālotra,1024,25.83242,72.24000,68120
386131,Balrāmpur,1024,27.42949,82.18545,77396
376477,Balsas,1013,-7.53250,-46.03556,101767
393051,Balta,1050,47.93596,29.62225,18511
393581,Baltimore,1051,39.29038,-76.61219,85708
392291,Baltiysk,1044,54.65455,19.90929,34540
379430,Balu,1016,34.18868,117.91265,38894
386130,Bālugaon,1024,20.17838,85.11327,17238
383594,Balung,1022,-7.73333,113.91667,47631
386129,Bālurghāt,1024,25.22099,88.77732,153279
386128,Balussheri,1024,11.44738,75.82944,27363
375800,Balwyn North,1011,-37.79086,145.09386,20015
387281,Bam,1026,29.10600,58.35700,99268
386127,Bāmaur,1024,26.33895,78.10104,32838
390625,Bamban,1040,15.27386,120.56683,78260
390624,Bambang,1040,16.38650,121.10660,22831
383593,Bambanglipuro,1022,-7.95000,110.28333,44713
381078,Bamberg,1017,49.89873,10.90067,70047
377583,Bambuí,1013,-20.00639,-45.97694,18840
386126,Bāmor Kalān,1024,24.89298,78.15105,27860
375723,Bāmyān,1010,34.82156,67.82734,61863
377752,Banabuiú,1013,-5.30972,-38.92056,17195
379524,Banan,1016,29.37861,106.54000,508703
376476,Bananeiras,1013,-6.75000,-35.63333,23134
392739,Ban Ang Sila,1048,13.33956,100.92964,36055
386125,Bānapur,1024,19.77889,85.17033,17499
392746,Ban Aranyik,1048,16.82553,100.28486,30508
386124,Banat,1024,29.46355,77.35478,21580
392737,Ban Bang Kadi,1048,13.99904,100.54962,27911
383112,Banbridge,1021,54.35000,-6.28333,16173
392735,Ban Bueng,1048,13.31100,101.11214,23509
383111,Banbury,1021,52.06320,-1.34222,48651
392744,Ban Chalong,1048,7.84468,98.33897,18072
392734,Ban Chang,1048,12.72543,101.05531,28204
386123,Banda,1024,24.04488,78.96094,30923
386122,Bānda,1024,25.47758,80.33491,152218
383242,Banda Aceh,1022,5.54167,95.33333,255029
383241,Bandar,1022,2.05000,99.75000,31442
387280,Bandar Abbas,1026,27.18650,56.28080,352173
389582,Bandar Baharu,1035,5.13428,100.49549,44412
375858,Bāndarban,1012,22.19534,92.21946,495272
389857,Bandar Baru Salak Tinggi,1035,2.81232,101.73562,21534
389838,Bandar Bukit Raja,1035,3.08737,101.43339,146534
389841,Bandar Country Homes,1035,3.32752,101.53106,39000
387279,Bandar-e Anzalī,1026,37.47318,49.45785,110826
387357,Bandar-e Emam Khomeyni,1026,30.43698,49.10288,78353
387237,Bandar-e Genāveh,1026,29.57910,50.51700,52750
387278,Bandar-e Lengeh,1026,26.55792,54.88067,22768
387277,Bandar-e Māhshahr,1026,30.55655,49.18852,162797
387276,Bandar-e Torkaman,1026,36.90124,54.07195,53970
389837,Bandar Kinrara,1035,3.04926,101.64153,93822
389779,Bandar Labuan,1035,5.28319,115.25371,54752
383285,Bandar Lampung,1022,-5.42917,105.26111,1166066
389829,Bandar Mahkota Cheras,1035,3.05420,101.79844,100000
389573,Bandar Nabawan,1035,5.03930,116.42740,31807
389801,Bandar Puncak Alam,1035,3.23890,101.42793,25000
389853,Bandar Putra Kulai,1035,1.64958,103.62661,19793
389845,Bandar Saujana Utama,1035,3.20663,101.47729,72000
389855,Bandar Seri Alam,1035,1.50434,103.87525,220000
389805,Bandar Sri Damansara,1035,3.19030,101.61061,48556
389840,Bandar Sri Sendayan,1035,2.67375,101.87210,26127
389848,Bandar Tasik Puteri,1035,3.28531,101.47410,150000
389783,Bandar Tenggara,1035,1.87000,103.61580,15278
389831,Bandar Tun Hussein Onn,1035,3.05469,101.75939,40000
389789,Bandar Tun Razak,1035,2.90290,102.88770,23247
389858,Bandar Utama,1035,3.14818,101.61407,200000
377582,Bandeirantes,1013,-23.11000,-50.36750,29494
386121,Bāndīkūi,1024,27.05087,76.57325,16165
386120,Bandipura,1024,34.41728,74.64308,37081
388853,Bandō,1029,36.06997,139.86705,57128
383592,Bandung,1022,-6.92222,107.60694,2444160
392733,Ban Dung,1048,17.69900,103.25957,19479
387275,Bāneh,1026,35.99750,45.88530,104799
390153,Banepā,1038,27.63270,85.52201,67629
386119,Banga,1024,31.18874,75.99495,19234
390623,Bañga,1040,6.42389,124.77833,58855
386117,Banganapalle,1024,15.31771,78.22669,25325
386116,Bangaon,1024,23.04553,88.83084,111693
386115,Bangaon,1024,25.86728,86.51152,60000
386114,Bangarapet,1024,12.99116,78.17804,44849
386563,Bāngarda,1024,22.75920,75.79536,15761
386564,Bāngarda Chhota,1024,22.74354,75.81448,64213
386113,Bāngarmau,1024,26.89120,80.21149,37425
386988,Bangawan,1024,23.19259,82.12720,20873
392732,Bang Ban,1048,14.37395,100.48528,16588
392738,Bang Bo District,1048,13.58333,100.81667,28376
392731,Bang Bua Thong,1048,13.91783,100.42403,41567
388594,Bange,1029,37.56444,139.82178,15068
389616,Bangi,1035,2.90000,101.78333,45042
383591,Bangil,1022,-7.59939,112.81860,120551
383590,Bangkalan,1022,-7.04550,112.73510,86250
392681,Bangkok,1048,13.75398,100.50144,5104476
392730,Bang Krathum,1048,16.57831,100.30034,18874
392729,Bang Kruai,1048,13.80500,100.47283,78305
392728,Bang Lamung,1048,13.04704,100.92891,39620
392727,Bang Len,1048,14.02188,100.17183,17914
392726,Bang Mun Nak,1048,16.02781,100.37917,15616
383110,Bangor,1021,53.22752,-4.12936,18322
394640,Bangor,1051,44.79884,-68.77265,32391
383109,Bangor,1021,54.66079,-5.66802,61011
392725,Bang Pa-in,1048,14.22783,100.57589,20484
392724,Bang Pakong,1048,13.54297,100.99333,25620
392582,Bang Phae,1048,13.69157,99.92982,29548
392723,Bang Racham,1048,14.89200,100.31728,15313
392722,Bang Rakam,1048,16.75847,100.11742,16841
392581,Bang Saphan,1048,11.21259,99.51167,15134
389819,Bangsar,1035,3.12945,101.67004,40000
390622,Bangued,1040,17.60833,120.63806,50382
389375,Ban Houakhoua,1032,20.24670,100.45401,15500
392586,Ban Huai Thalaeng,1048,14.98333,102.65000,15352
375860,Baniachang,1012,24.51863,91.35787,37807
375674,Bani Yas City,1009,24.30978,54.62944,80498
383589,Banjar,1022,-7.19550,107.43130,200970
383588,Banjar,1022,-8.19000,114.96750,89040
383587,Banjaran,1022,-7.04528,107.58778,164952
383586,Banjarmasin,1022,-3.31987,114.59075,657663
386565,Bānk,1024,22.70296,75.80390,18534
386112,Bānka,1024,24.88091,86.92257,45977
392580,Ban Kamala,1048,7.95508,98.28322,22296
386111,Bankāpur,1024,14.92295,75.26221,22529
392587,Ban Khlong Bang Sao Thong,1048,13.64172,100.83272,31153
386110,Bānki,1024,20.37912,85.52953,16555
392576,Ban Ko Sire,1048,7.88747,98.42575,71284
386344,Bankra,1024,22.60291,88.27751,56273
386109,Bānkura,1024,23.23241,87.07160,133966
392721,Ban Lam Luk Ka,1048,13.97738,100.77776,60700
389225,Banlung,1030,13.73939,106.98727,17000
392585,Ban Mai,1048,7.20411,100.54508,86899
386108,Banmankhi,1024,25.88857,87.19421,26806
386827,Banmankhi Bazar,1024,25.88761,87.19356,30336
392720,Ban Mo,1048,14.61544,100.72731,15959
392579,Ban Na,1048,17.01717,99.73283,40174
392578,Ban Na San,1048,8.80036,99.36372,21900
395370,Banning,1051,33.92557,-116.87641,30945
392584,Ban Nong Wua So,1048,17.26750,103.22472,21722
390969,Bannu,1041,32.98527,70.60403,1357890
386107,Bannūr,1024,12.33295,76.86201,25455
392718,Ban Phaeo,1048,13.59072,100.10748,41904
392717,Ban Phai,1048,16.05997,102.73097,35583
392716,Ban Phan Don,1048,17.14272,102.97261,29211
392714,Ban Phe,1048,12.62824,101.43757,17414
392713,Ban Phra,1048,14.09461,101.38900,15396
392577,Ban Pong,1048,13.81629,99.87739,57559
379429,Banqiao,1016,29.51302,105.95341,22725
392772,Banqiao,1049,25.01427,121.46719,551221
392745,Ban Ratsada,1048,7.90963,98.40248,33534
390621,Bansalan,1040,6.78611,125.21333,21391
386106,Bānsbāria,1024,22.95387,88.40098,108474
386105,Bānsdīh,1024,25.88377,84.21827,21457
392712,Ban Selaphum,1048,16.01667,103.95000,17412
386104,Bānsi,1024,27.17749,82.93442,39926
383108,Banstead,1021,51.32233,-0.20685,46280
386103,Bānswāda,1024,18.37725,77.88007,22665
386102,Bānswāra,1024,23.54109,74.44250,93648
392574,Ban Tak,1048,17.04325,99.08128,18384
392736,Ban Talat Bueng,1048,13.07147,101.00314,26113
392521,Ban Talat Nua,1048,7.88489,98.38557,23381
392520,Ban Talat Yai,1048,7.88481,98.40008,52192
390620,Bantayan,1040,11.16830,123.72230,18984
389614,Banting,1035,2.81360,101.50185,48240
383585,Bantul,1022,-7.88806,110.32889,64360
386101,Bāntva,1024,21.48815,70.07576,15291
386100,Bantvāl,1024,12.89050,75.03489,40155
386099,Banūr,1024,30.55407,76.71948,17349
389374,Ban Xénô,1032,16.67590,104.98798,25135
381682,Banyoles,1018,42.11667,2.76667,18327
383584,Banyumas,1022,-7.51417,109.29417,48378
383583,Banyuwangi,1022,-8.23250,114.35755,117558
380209,Bao'an,1016,22.55213,113.88288,4476554
380211,Bao'an Centre,1016,22.57953,113.91630,120170
379971,Baoding,1016,29.74880,105.75843,17591
379428,Baoding,1016,38.87288,115.46246,2739887
379906,Baohe,1016,30.06084,107.70172,18112
380027,Baoji,1016,34.36775,107.23705,1437802
379427,Baojia,1016,29.43869,108.31324,39738
386098,Bāola,1024,22.82844,72.36364,42458
396290,Bảo Lộc,1052,11.54798,107.80772,170920
379825,Baolong,1016,30.94229,110.00588,19472
379426,Baoluan,1016,29.76416,107.67834,21417
379748,Baoqing,1016,46.32452,132.18970,62991
379747,Baoshan,1016,46.57472,131.39318,123791
378272,Baoshan,1016,25.11626,99.16366,935618
379746,Baotou,1016,40.65160,109.84389,2150000
379484,Baoxing,1016,29.62173,105.69265,18963
379423,Baoying,1016,33.22917,119.30917,80292
386097,Bāpatla,1024,15.90422,80.46743,70777
386502,Bāprola,1024,28.64133,77.01415,52744
392343,Baq‘ā’,1045,27.90647,42.38898,19659
383714,Bāqa el Gharbīya,1023,32.41806,35.04312,29950
387038,Baqubah,1025,33.75403,44.60518,152550
393050,Bar,1050,49.07362,27.67404,15337
383582,Barabai,1022,-2.58333,115.38333,55687
392194,Barabinsk,1044,55.35072,78.35873,31508
381504,Barakaldo,1018,43.29639,-2.98813,98460
375722,Baraki Barak,1010,33.96744,68.94920,22305
386096,Bārākpur,1024,22.76602,88.36336,148174
386095,Bārāmati,1024,18.15174,74.57767,54415
386094,Bāramūla,1024,34.20900,74.34285,77276
386093,Bārān,1024,25.10000,76.51667,87478
381681,Barañáin,1018,42.80567,-1.67731,20039
377581,Barão de Cocais,1013,-19.94583,-43.48722,22387
376475,Barão de Grajaú,1013,-6.75639,-43.02417,18984
386479,Barāra,1024,30.21465,77.04025,21545
390619,Baras,1040,14.51691,121.26580,20250
386092,Bārāsat,1024,22.72154,88.48198,298127
383873,Bara Uchāna,1024,29.46747,76.17798,16815
386091,Barauli,1024,26.38109,84.58648,41877
376474,Baraúna,1013,-5.08000,-37.61667,26913
386668,Barauni,1024,25.47090,85.97600,71660
386090,Baraut,1024,29.10199,77.26334,93544
377580,Barbacena,1013,-21.22583,-43.77361,122211
376473,Barbalha,1013,-7.31111,-39.30417,75033
381680,Barbastro,1018,42.03565,0.12686,16924
381405,Barbate,1018,36.19237,-5.92186,22551
381510,Barberà del Vallès,1018,41.51590,2.12457,31144
395081,Barberton,1051,41.01283,-81.60512,26234
386466,Barbigha,1024,25.21670,85.73330,46075
386089,Bar Bigha,1024,25.21855,85.73320,41758
386377,Barbil,1024,22.10194,85.37752,52586
376472,Barcarena,1013,-1.50583,-48.62583,126650
387435,Barcellona Pozzo di Gotto,1027,38.14772,15.21469,34598
381679,Barcelona,1018,41.38879,2.15899,1620343
377706,Barcelos,1013,-0.97357,-62.92690,18626
387274,Bardaskan,1026,35.26218,57.97075,28233
386088,Barddhamān,1024,23.25572,87.85691,301725
386087,Bārdoli,1024,21.12297,73.11151,60821
387187,Bardsīr,1026,29.92266,56.57433,37192
387889,Bareggio,1027,45.47927,8.99789,16546
386086,Bareilly,1024,28.36678,79.43167,745435
386085,Bareja,1024,22.84863,72.59137,19690
386084,Bareli,1024,23.00445,78.23010,34663
390064,Barendrecht,1036,51.85667,4.53472,38672
386083,Bargarh,1024,21.33348,83.61905,68670
386082,Bargi,1024,22.99138,79.87550,17588
386081,Bārh,1024,25.48339,85.70928,61470
386080,Barhiya,1024,25.28814,86.02055,43045
387888,Bari,1027,41.12066,16.86982,316491
386079,Bāri,1024,26.64661,77.61634,56136
392391,Bariq,1045,18.92966,41.92953,75351
377579,Bariri,1013,-22.07444,-48.74028,31595
386078,Bari Sādri,1024,24.41339,74.47331,15616
375901,Barishal,1012,22.70497,90.37013,202242
386077,Barjala,1024,23.61820,91.35596,17998
386076,Barkā Kānā,1024,23.62118,85.46748,18475
383107,Barking,1021,51.53333,0.08333,61000
386075,Barki Saria,1024,24.17594,85.88938,24134
382349,Bar-le-Duc,1020,48.77275,5.16108,18595
387887,Barletta,1027,41.31429,16.28165,93279
386074,Bārmer,1024,25.74572,71.39211,89487
386073,Barnagar,1024,23.04890,75.37804,36438
386072,Barnāla,1024,30.37451,75.54870,105016
392193,Barnaul,1044,53.35980,83.74560,632372
383106,Barnes,1021,51.47352,-0.24839,21218
383105,Barnet,1021,51.65000,-0.20000,30000
390063,Barneveld,1036,52.14000,5.58472,35095
383104,Barnsley,1021,53.55000,-1.48333,71447
394528,Barnstable,1051,41.70011,-70.29947,47821
383103,Barnstaple,1021,51.08022,-4.05808,31616
386071,Baroda,1024,25.50000,76.65000,18437
386070,Barpāli,1024,21.19005,83.58721,20202
386069,Barpeta,1024,26.32293,91.00632,48824
386411,Barpeta Road,1024,26.50284,90.96937,35571
387886,Barra,1027,40.84255,14.31849,36642
377578,Barra,1013,-11.08944,-43.14167,20894
377577,Barra Bonita,1013,-22.49472,-48.55806,34346
377882,Barra da Tijuca,1013,-22.99835,-43.36545,39403
376471,Barra de Santo Antônio,1013,-9.40472,-35.50722,16735
377576,Barra de São Francisco,1013,-18.75500,-40.89083,42498
377575,Barra do Bugres,1013,-15.07250,-57.18111,29576
376470,Barra do Corda,1013,-5.50556,-45.24333,86662
377574,Barra do Garças,1013,-15.89000,-52.25667,72694
377573,Barra do Piraí,1013,-22.47000,-43.82556,98501
377572,Barra dos Coqueiros,1013,-10.90889,-37.03861,41511
377571,Barra Mansa,1013,-22.54417,-44.17139,164052
376469,Barras,1013,-4.24444,-42.29444,47938
377570,Barra Velha,1013,-26.63222,-48.68472,45369
376468,Barreira,1013,-4.28694,-38.64306,22392
377569,Barreiras,1013,-12.15278,-44.99000,158292
376467,Barreirinha,1013,-2.79333,-57.07000,33436
376466,Barreirinhas,1013,-2.75556,-42.82591,65589
377568,Barreiro do Jaíba,1013,-15.61532,-43.59187,18167
376465,Barreiros,1013,-8.81833,-35.18639,42056
377567,Barretos,1013,-20.55722,-48.56778,122485
383102,Barrhead,1021,55.79916,-4.39285,17620
377915,Barrie,1014,44.40011,-79.66634,141434
395205,Barrington,1051,41.74066,-71.30866,16669
377566,Barrinha,1013,-21.19361,-48.16389,32092
381404,Barrio de Peral,1018,37.62513,-0.98792,15937
376464,Barro,1013,-7.17846,-38.78003,19381
377565,Barroso,1013,-21.18694,-43.97583,16975
383101,Barrow in Furness,1021,54.11094,-3.22758,45865
383100,Barry,1021,51.39979,-3.28380,54673
386068,Barshi,1024,18.23454,75.69275,118722
395371,Barstow,1051,34.89859,-117.02282,23692
395372,Barstow Heights,1051,34.86971,-117.05615,24202
393869,Bartlesville,1051,36.74731,-95.98082,36595
394339,Bartlett,1051,41.99503,-88.18563,41545
393941,Bartlett,1051,35.20453,-89.87398,58579
383176,Bartley Green,1021,52.43532,-1.99707,25473
391113,Bartoszyce,1042,54.25354,20.80819,23482
393150,Bartow,1051,27.89641,-81.84314,18972
377564,Barueri,1013,-23.51056,-46.87611,316473
386067,Baruipur,1024,22.36544,88.43250,53128
386066,Bāruni,1024,25.47509,85.96813,84888
386065,Barwāh,1024,22.25394,76.03853,26459
386863,Barwala,1024,22.21983,72.06755,17951
386064,Barwāla,1024,29.36747,75.90809,43384
386063,Barwāni,1024,22.03232,74.89982,55504
391973,Barysh,1044,53.65533,47.11229,18547
381709,Basauri,1018,43.23970,-2.88580,42657
386062,Basavakalyan,1024,17.87445,76.94972,69717
386061,Basavana Bāgevādi,1024,16.57278,75.97252,33198
378216,Basel,1015,47.55839,7.57327,177595
383099,Basford,1021,52.96667,-1.18333,16000
379422,Bashan,1016,27.76823,116.05017,103748
386060,Basi,1024,26.83150,76.04856,21096
386059,Basi,1024,30.58813,76.84498,18739
386058,Basi,1024,30.68850,76.40111,18591
383098,Basildon,1021,51.56844,0.45782,144859
383097,Basingstoke,1021,51.26249,-1.08708,107642
390968,Basirpur,1041,30.57759,73.83912,41617
394831,Basking Ridge,1051,40.70621,-74.54932,21424
386057,Basmat,1024,19.32872,77.15746,68846
386056,Basni,1024,27.17232,73.64519,23414
386055,Basoda,1024,23.85153,77.93652,78289
387077,Basrah,1025,30.50852,47.78040,1326564
387885,Bassano del Grappa,1027,45.76656,11.72739,38224
381077,Bassum,1017,52.85059,8.72791,16191
386054,Bastī,1024,26.78817,82.71617,115115
382348,Bastia,1020,42.70219,9.45123,41001
387884,Bastia umbra,1027,43.06425,12.54612,17831
377563,Bastos,1013,-21.92194,-50.73389,21503
386053,Bāsudebpur,1024,21.11974,86.72896,31827
386887,Basukinath,1024,24.39446,87.08643,17123
379421,Basuo,1016,19.10267,108.66565,444458
386052,Baswa,1024,27.14955,76.58345,22515
390618,Batac City,1040,18.05540,120.56489,55484
377562,Bataguassu,1013,-21.71417,-52.42222,23031
386051,Batāla,1024,31.80921,75.20294,145468
376462,Batalha,1013,-9.67778,-37.12472,17103
376463,Batalha,1013,-4.02500,-42.07500,26300
383624,Batam,1022,1.14937,104.02491,1164352
383581,Batang,1022,-6.48460,110.70830,136145
379420,Batang,1016,29.83537,106.29271,23851
390617,Batangas,1040,13.75670,121.05840,237370
389548,Batang Berjuntai,1035,3.38333,101.41667,20001
377561,Batatais,1013,-20.89111,-47.58500,58402
394340,Batavia,1051,41.85003,-88.31257,26495
394932,Batavia,1051,42.99812,-78.18752,15010
391972,Bataysk,1044,47.13746,39.75713,109962
383096,Bath,1021,51.37510,-2.36172,101557
383095,Bathgate,1021,55.90204,-3.64398,21070
385991,Bathinda,1024,30.20747,74.93893,242800
375791,Bathurst,1011,-33.41665,149.58060,36230
387037,Batifa,1025,37.17454,43.01233,28000
390966,Bat Khela,1041,34.61780,71.97247,46079
383094,Batley,1021,53.70291,-1.63370,50807
390616,Bato,1040,13.35280,123.36770,16939
393546,Baton Rouge,1051,30.44332,-91.18747,227470
390967,Battagram,1041,34.67719,73.02329,700000
389226,Battambang,1030,13.10271,103.19822,119251
389426,Battaramulla South,1033,6.89640,79.91810,75633
389425,Batticaloa,1033,7.71020,81.69240,86742
387883,Battipaglia,1027,40.60861,14.98209,47104
394657,Battle Creek,1051,42.31730,-85.17816,51589
395954,Battle Ground,1051,45.78095,-122.53343,19407
383580,Batu,1022,-7.87000,112.52833,221714
389625,Batu Anam,1035,2.58250,102.71100,21923
389549,Batu Arang,1035,3.31667,101.46667,22579
389767,Batu Berendam,1035,2.24870,102.24600,25028
389650,Batu Caves,1035,3.23800,101.68200,254083
389632,Batu Feringgi,1035,5.47090,100.24529,20000
389657,Batu Gajah,1035,4.46916,101.04107,46183
389594,Batu Kurau,1035,4.96667,100.80000,22307
389519,Batu Pahat,1035,1.85480,102.93250,156236
383579,Baturaden,1022,-7.30000,109.21667,42394
383578,Baturaja,1022,-4.12891,104.16695,134759
376461,Baturité,1013,-4.32861,-38.88472,35218
383713,Bat Yam,1023,32.02379,34.75185,129012
389591,Bau,1035,1.41667,110.15000,52643
390615,Bauan,1040,13.79170,121.00850,33560
390614,Bauang,1040,16.53083,120.33306,17109
383577,Baubau,1022,-5.46330,122.60240,161280
386050,Baud,1024,20.83773,84.32618,18945
381076,Baunatal,1017,51.25182,9.40747,28173
377560,Bauru,1013,-22.31472,-49.06056,379297
381075,Bautzen,1017,51.18035,14.43494,41972
391971,Bavly,1044,54.39304,53.26023,22982
386049,Bāwal,1024,28.07184,76.58312,16776
386048,Bawāna,1024,28.79820,77.03431,73680
386047,Bawāni Khera,1024,28.94919,76.03108,20289
390175,Bawshar,1039,23.57769,58.39982,383257
390613,Bay,1040,14.18368,121.28554,33547
386046,Bayad,1024,23.22340,73.21491,17886
390612,Bayambang,1040,15.81270,120.45570,15859
379745,Bayan,1016,46.07622,127.39369,55186
386045,Bayāna,1024,26.90791,77.28985,36399
380159,Bayandai,1016,43.96586,81.24852,33131
379417,Bayan Hot,1016,38.83861,105.66861,94445
389641,Bayan Lepas,1035,5.29992,100.26052,130455
380031,Bayan Nur,1016,40.74143,107.38599,1760000
390611,Bayawan,1040,9.36490,122.80400,122747
390610,Baybay,1040,10.67850,124.80060,17668
394658,Bay City,1051,43.59447,-83.88886,33917
394239,Bay City,1051,28.98276,-95.96940,17598
376460,Bayeux,1013,-7.12500,-34.93222,82742
382347,Bayeux,1020,49.27732,-0.70390,15963
379416,Bayiji,1016,34.26667,117.68333,65830
387036,Bayjī,1025,34.92915,43.48878,36454
392265,Baykal’sk,1044,51.51500,104.14020,15600
391970,Baymak,1044,52.59172,58.31132,17493
387039,Baynjiwayn,1025,35.62054,45.94908,27116
390609,Bayombong,1040,16.48120,121.14970,48199
393151,Bayonet Point,1051,28.32667,-82.68343,23467
382346,Bayonne,1020,43.49316,-1.47300,44396
394832,Bayonne,1051,40.66871,-74.11431,66311
393547,Bayou Cane,1051,29.62410,-90.75120,19355
395373,Bay Point,1051,38.02909,-121.96163,21534
381074,Bayreuth,1017,49.94782,11.57893,75061
394933,Bay Shore,1051,40.72510,-73.24539,26337
393152,Bayshore Gardens,1051,27.42532,-82.59038,16323
395817,Bayside,1051,40.84235,-124.06367,17132
378306,Baytokay,1016,43.68167,81.78889,19217
393994,Baytown,1051,29.73550,-94.97743,76335
390608,Bayugan,1040,8.75611,125.76750,40561
395082,Bay Village,1051,41.48477,-81.92208,15402
393812,Bayville,1051,39.90929,-74.15486,20512
381403,Baza,1018,37.49073,-2.77259,23359
375730,Bāzārak,1010,35.31292,69.51519,65000
386044,Bāzpur,1024,29.15299,79.10814,23900
377916,Beaconsfield,1014,45.43341,-73.86586,19194
393140,Bear,1051,39.62928,-75.65826,19371
383093,Bearsden,1021,55.91536,-4.33279,27340
389569,Beaufort,1035,5.34730,115.74550,15855
395374,Beaumont,1051,33.92946,-116.97725,43811
393995,Beaumont,1051,30.08605,-94.10185,115282
382345,Beaune,1020,47.02413,4.83887,24162
382344,Beauvais,1020,49.43333,2.08333,53393
393833,Beavercreek,1051,39.70923,-84.06327,46277
395236,Beaver Dam,1051,43.45777,-88.83733,16564
395864,Beaverton,1051,45.48706,-122.80371,96577
386043,Beāwar,1024,26.10119,74.32028,130777
377559,Bebedouro,1013,-20.94944,-48.47917,76373
376459,Beberibe,1013,-4.17972,-38.13056,53114
383092,Bebington,1021,53.35000,-3.01667,15768
383091,Beckenham,1021,51.40878,-0.02526,82000
381073,Beckingen,1017,49.40000,6.70000,15983
394228,Beckley,1051,37.77817,-81.18816,17056
381072,Beckum,1017,51.75571,8.04075,37814
381071,Bedburg,1017,50.99258,6.57128,24937
383090,Bedford,1021,52.13459,-0.46632,106940
394815,Bedford,1051,42.94647,-71.51590,21188
393996,Bedford,1051,32.84402,-97.14307,49337
386042,Bedi,1024,22.50143,70.04363,21327
383089,Bedlington,1021,55.13061,-1.59319,16974
392512,Bedok New Town,1047,1.32639,103.94167,276990
389585,Bedong,1035,5.72743,100.50876,47585
383626,Bedugul,1022,-8.45040,115.59250,20000
383088,Bedworth,1021,52.47910,-1.46909,29981
391312,Będzin,1042,50.32607,19.12565,58236
385919,Beed,1024,18.98921,75.75634,146709
383712,Beersheba,1023,31.25181,34.79130,186600
383711,Be’er Ya‘aqov,1023,31.93864,34.83749,27768
386041,Begamganj,1024,23.59917,78.34064,34031
386496,Begampur,1024,28.72655,77.06689,53682
382343,Bègles,1020,44.80759,-0.55144,23504
386040,Begūn,1024,24.98333,75.00000,20836
386039,Begusarai,1024,25.41853,86.13389,252008
386038,Behat,1024,30.17180,77.61390,18223
387272,Behbahān,1026,30.59590,50.24170,79327
386037,Behror,1024,27.88832,76.28108,25815
387271,Behshahr,1026,36.69235,53.55262,93500
379744,Bei’an,1016,48.26667,126.60000,436444
379415,Beibei,1016,29.82739,106.43645,247702
379711,Beichengqu,1016,40.43944,113.15361,72444
379414,Beidao,1016,34.56861,105.89333,74767
392779,Beidou,1049,23.87292,120.52426,33289
392780,Beigang,1049,23.57010,120.30162,33300
380111,Beihai,1016,25.08005,98.57746,22668
379413,Beihai,1016,21.48349,109.11549,525329
379412,Beijing,1016,39.90750,116.39723,18960744
379002,Beiliu,1016,22.70722,110.34917,199769
379411,Beimeng,1016,36.60444,119.49556,66277
379743,Beipiao,1016,41.79194,120.77917,154999
379410,Beisu,1016,38.15479,114.80689,52752
379409,Beiwangli,1016,38.62083,115.39639,44112
381678,Béjar,1018,40.38641,-5.76341,15007
383576,Bekasi,1022,-6.23490,106.98960,2564940
386036,Bela,1024,25.92058,81.99629,73992
386583,Bela,1024,25.55707,84.43078,26707
390965,Bela,1041,26.22718,66.31178,20119
376458,Bela Cruz,1013,-3.05056,-40.16778,32775
389702,Belaga,1035,2.70000,113.78333,22502
386034,Belagavi,1024,15.85212,74.50447,490045
390607,Bel Air,1040,14.55940,121.02580,36007
396076,Bel Air North,1051,39.55429,-76.37309,30568
396077,Bel Air South,1051,39.50506,-76.31977,47709
377558,Bela Vista,1013,-22.10809,-56.53253,21613
377557,Bela Vista de Goiás,1013,-16.97278,-48.95333,34445
383240,Belawan,1022,3.77550,98.68320,102707
391969,Belaya Glina,1044,46.08115,40.87351,17997
391968,Belaya Kalitva,1044,48.17927,40.77920,47521
391311,Bełchatów,1042,51.36883,19.35671,62896
386035,Beldānga,1024,23.93428,88.26018,27489
391967,Belebey,1044,54.10774,54.11741,62582
376457,Belém,1013,-1.45583,-48.50444,1499641
376456,Belém,1013,-6.69167,-35.53333,16401
376455,Belém de São Francisco,1013,-8.75389,-38.96583,18713
391966,Belëv,1044,53.81217,36.13339,15300
383087,Belfast,1021,54.59682,-5.92541,348005
377556,Belford Roxo,1013,-22.76417,-43.39944,466096
382342,Belfort,1020,47.64218,6.85385,54562
391965,Belgorod,1044,50.61074,36.58015,345289
392027,Belidzhi,1044,41.89184,48.41247,16078
395375,Bell,1051,33.97751,-118.18702,36205
386392,Bellampalli,1024,19.05577,79.49300,66660
387944,Bellaria-Igea Marina,1027,44.14255,12.47154,17635
393112,Bella Vista,1051,36.48070,-94.27134,27999
393153,Belle Glade,1051,26.68451,-80.66756,18251
393445,Belleville,1051,38.52005,-89.98399,42034
377917,Belleville,1014,44.16682,-77.38277,50716
394833,Belleville,1051,40.79371,-74.15014,36878
395237,Bellevue,1051,44.44416,-87.92010,15317
394804,Bellevue,1051,41.13667,-95.89084,55510
395955,Bellevue,1051,47.61038,-122.20068,139820
395377,Bellflower,1051,33.88168,-118.11701,78441
395376,Bell Gardens,1051,33.96529,-118.15146,43106
395956,Bellingham,1051,48.75955,-122.48822,85146
378215,Bellinzona,1015,46.19278,9.01703,43220
394934,Bellmore,1051,40.66871,-73.52707,16218
383086,Bellshill,1021,55.81667,-4.01667,20650
387882,Belluno,1027,46.14262,12.21560,25064
393154,Bellview,1051,30.46159,-87.31497,23355
394341,Bellwood,1051,41.88142,-87.88312,19308
395378,Belmont,1051,37.52021,-122.27580,27218
394529,Belmont,1051,42.39593,-71.17867,24729
377918,Beloeil,1014,45.56839,-73.20568,18927
392264,Belogorsk,1044,50.91805,128.47369,67911
377555,Belo Horizonte,1013,-19.92083,-43.93778,2721564
395238,Beloit,1051,42.50835,-89.03178,36891
376454,Belo Jardim,1013,-8.33556,-36.42417,83647
386032,Belonia,1024,23.25178,91.45407,16735
377554,Belo Oriente,1013,-19.22000,-42.48361,18470
391964,Beloozyorskiy,1044,55.45978,38.44358,18297
391963,Belorechensk,1044,44.77002,39.87246,54526
391962,Beloretsk,1044,53.96206,58.39996,70468
392192,Belovo,1044,54.42119,86.29907,75764
392191,Beloyarskiy,1044,63.71194,66.67222,20087
387434,Belpasso,1027,37.59192,14.97985,16319
383085,Belper,1021,53.02330,-1.48119,23417
386031,Belsand,1024,26.44365,85.40076,20566
376453,Belterra,1013,-2.63639,-54.93722,18099
393997,Belton,1051,31.05601,-97.46445,20547
393583,Beltsville,1051,39.03483,-76.90747,16772
386030,Belūr,1024,13.16558,75.86519,22484
389708,Beluru,1035,3.98333,114.10000,28695
393380,Belvedere Park,1051,33.75483,-84.26742,15152
394342,Belvidere,1051,42.26391,-88.84427,25132
392190,Belyy Yar,1044,61.26491,73.24104,16772
386029,Bemetāra,1024,21.71556,81.53423,28536
391112,Bemowo,1042,52.25460,20.90844,123932
381402,Benalmádena,1018,36.59610,-4.57267,58854
381677,Benavente,1018,42.00249,-5.67826,19119
393998,Benbrook,1051,32.67319,-97.46058,22629
395865,Bend,1051,44.05817,-121.31531,87014
375790,Bendigo,1011,-36.75818,144.28024,103034
381070,Bendorf,1017,50.42289,7.57924,17495
381401,Benetússer,1018,39.42265,-0.39686,15313
387881,Benevento,1027,41.13070,14.77816,58418
376452,Benevides,1013,-1.36139,-48.24472,63567
386118,Bengaluru,1024,12.97194,77.59369,8495492
379408,Bengbu,1016,32.94083,117.36083,972784
383575,Bengkayang,1022,0.83194,109.43589,33385
383574,Bengkulu,1022,-3.80044,102.26554,373591
381676,Benicarló,1018,40.41650,0.42709,26655
381675,Benicàssim,1018,40.05000,0.06667,18055
395379,Benicia,1051,38.04937,-122.15858,28167
381400,Benidorm,1018,38.53816,-0.13098,71034
386528,Benipur,1024,26.05509,86.14557,75317
377705,Benjamin Constant,1013,-4.37555,-70.03179,40509
395167,Bensalem,1051,40.10455,-74.95128,60427
394343,Bensenville,1051,41.95503,-87.94007,18440
381069,Bensheim,1017,49.68369,8.61839,39439
390062,Benthuizen,1036,52.07750,4.54444,18959
383084,Bentley,1021,53.53333,-1.15000,34821
377553,Bento Gonçalves,1013,-29.17139,-51.51917,123151
393113,Benton,1051,34.56454,-92.58683,34177
389765,Bentong Town,1035,3.52229,101.90866,49213
393114,Bentonville,1051,36.37285,-94.20882,44499
389424,Bentota,1033,6.42598,79.99575,37000
396289,Bến Tre,1052,10.24147,106.37585,124449
389515,Bentung,1035,3.53160,101.90380,40373
379742,Benxi,1016,41.28861,123.76500,987717
386028,Beohāri,1024,24.02423,81.37831,24545
389268,Beolgyo,1031,34.84897,127.34052,19842
388593,Beppu,1029,33.27945,131.49751,122643
376451,Bequimão,1013,-2.44889,-44.78250,19584
375894,Bera,1012,24.07821,89.63262,39604
386027,Berasia,1024,23.63134,77.43351,30951
383239,Berastagi,1022,3.19468,98.50889,48244
389780,Bercham,1035,4.64110,101.13930,150000
382340,Berck,1020,50.40000,1.60000,15609
382341,Berck-Plage,1020,50.40704,1.56446,15675
392189,Berdsk,1044,54.75352,83.09624,90250
393046,Berdyansk,1050,46.75578,36.78815,106311
393045,Berdychiv,1050,49.89408,28.60144,73046
395083,Berea,1051,41.36616,-81.85430,18874
393044,Berehove,1050,48.20514,22.64453,23325
392955,Berestyn,1050,49.37511,35.45493,21426
393043,Berezan,1050,50.31120,31.46712,16202
393042,Berezhany,1050,49.44578,24.93686,17697
391961,Berezniki,1044,59.40910,56.82040,167748
392188,Berëzovka,1044,56.03715,93.12684,20913
392187,Berëzovskiy,1044,55.66951,86.27485,55000
381674,Berga,1018,42.10429,1.84628,17160
387880,Bergamo,1027,45.69601,9.66721,121200
390059,Bergeijk,1036,51.31917,5.35833,18181
390061,Bergen,1036,52.66917,4.70417,29974
390114,Bergen,1037,60.39299,5.32415,285911
394834,Bergenfield,1051,40.92760,-73.99736,27621
390060,Bergen op Zoom,1036,51.49500,4.29167,66256
382339,Bergerac,1020,44.85157,0.48171,28317
381068,Bergheim,1017,50.95572,6.63986,63558
381067,Bergisch Gladbach,1017,50.98560,7.13298,106184
381066,Bergkamen,1017,51.61633,7.64451,52329
381065,Bergneustadt,1017,51.02496,7.65599,20567
390058,Bergschenhoek,1036,51.99000,4.49861,16579
386026,Beri Khās,1024,28.70146,76.57708,16727
381399,Berja,1018,36.84693,-2.94966,15035
390080,Berkel en Rodenrijs,1036,51.99313,4.47865,20189
395380,Berkeley,1051,37.87159,-122.27275,120972
383083,Berkhamsted,1021,51.76040,-0.56528,21997
394659,Berkley,1051,42.50309,-83.18354,15268
381064,Berlin,1017,52.52437,13.41053,3426354
381673,Bermeo,1018,43.42088,-2.72152,16937
386775,Bermo,1024,23.78781,85.93526,17401
378214,Bern,1015,46.94809,7.44744,121631
381063,Bernau bei Berlin,1017,52.67982,13.58708,34866
381062,Bernburg,1017,51.79464,11.74010,32113
377552,Bertioga,1013,-23.85444,-46.13861,64723
377704,Beruri,1013,-3.89833,-61.37306,22136
389423,Beruwala,1033,6.47880,79.98280,34250
394344,Berwyn,1051,41.85059,-87.79367,56368
392186,Beryozovsky,1044,56.90830,60.80190,47000
382338,Besançon,1020,47.24878,6.01815,128426
391960,Beslan,1044,43.19277,44.53274,35604
393073,Bessemer,1051,33.40178,-86.95444,26730
390057,Best,1036,51.50750,5.39028,29074
383573,Besuki,1022,-7.73379,113.69785,55465
386025,Betamcherla,1024,15.45144,78.14797,38994
381398,Bétera,1018,39.59111,-0.46151,20740
395866,Bethany,1051,45.55789,-122.86760,20646
393870,Bethany,1051,35.51867,-97.63226,19589
395168,Bethel Park,1051,40.32757,-80.03950,32118
393584,Bethesda,1051,38.98067,-77.10026,60858
395169,Bethlehem,1051,40.62593,-75.37046,74892
394935,Bethpage,1051,40.74427,-73.48207,16429
382337,Béthune,1020,50.52965,2.64003,31568
377551,Betim,1013,-19.96778,-44.19833,384000
386024,Betma,1024,22.68653,75.61456,15999
392711,Betong,1048,5.77434,101.07231,29604
389696,Betong,1035,1.40000,111.51667,36303
383709,Bet She’an,1023,32.49728,35.49632,16800
383708,Bet Shemesh,1023,31.73072,34.99293,124957
394307,Bettendorf,1051,41.52448,-90.51569,35505
386023,Bettiah,1024,26.80229,84.50311,132209
386022,Betūl,1024,21.90056,77.90229,103330
390056,Beuningen,1036,51.86083,5.76667,25557
383082,Beverley,1021,53.84587,-0.42332,30587
394530,Beverly,1051,42.55843,-70.88005,41186
394531,Beverly Cove,1051,42.55343,-70.85366,40365
381061,Beverungen,1017,51.66801,9.37417,15266
390055,Beverwijk,1036,52.48333,4.65694,37585
386021,Bewar,1024,27.21869,79.29761,23280
381060,Bexbach,1017,49.34615,7.25527,19115
383081,Bexhill-on-Sea,1021,50.85023,0.47095,40478
383080,Bexley,1021,51.44162,0.14866,228000
386020,Beypore,1024,11.17151,75.80611,70751
391959,Bezenchuk,1044,52.98200,49.43330,23736
376450,Bezerros,1013,-8.23333,-35.79694,64809
391958,Bezhetsk,1044,57.78422,36.70082,28114
382336,Béziers,1020,43.34122,3.21402,74081
382335,Bezons,1020,48.92426,2.21280,27570
386019,Bhābhar,1024,24.07165,71.59745,21894
386018,Bhabhua,1024,25.04049,83.60749,50179
386017,Bhachāu,1024,23.29858,70.34279,39532
386016,Bhādāsar,1024,28.31457,74.28952,33006
386015,Bhadaur,1024,30.47651,75.33049,17532
386014,Bhadgaon,1024,20.66905,75.22937,37214
386013,Bhadohi,1024,25.39526,82.57030,78568
386012,Bhādra,1024,29.10298,75.17138,37629
386011,Bhadrāchalam,1024,17.66846,80.88887,45656
386010,Bhadrakh,1024,21.05447,86.51560,98648
390152,Bhadrapur,1038,26.54404,88.09436,19523
386792,Bhadravati,1024,20.10010,79.11442,60565
386009,Bhadrāvati,1024,13.84846,75.70502,163903
386008,Bhadreswar,1024,22.82449,88.33841,121662
386007,Bhāgalpur,1024,25.24446,86.97183,400146
386006,Bhainsdehi,1024,21.64491,77.63023,16400
375857,Bhairab Bāzār,1012,24.05240,90.97640,105457
386005,Bhaisa,1024,19.11285,77.96336,46120
390963,Bhakkar,1041,31.62685,71.06471,131658
386004,Bhālki,1024,18.04348,77.20600,40333
386510,Bhālswa Jahangirpur,1024,28.73558,77.16682,197148
390962,Bhalwal,1041,32.26576,72.89809,74744
389502,Bhamo,1034,24.25256,97.23357,47920
390961,Bhan,1041,26.55831,67.72139,16961
386003,Bhandāra,1024,21.16817,79.64885,91845
375916,Bhāndāria,1012,22.48898,90.06273,30219
386002,Bhānder,1024,25.73581,78.74555,25204
375925,Bhanga,1012,23.39194,89.98389,43202
386001,Bhanjanagar,1024,19.92719,84.58201,20647
386000,Bhānpura,1024,24.51300,75.74690,21013
385999,Bhānpurī,1024,21.09190,80.93218,17270
385998,Bhānvad,1024,21.93053,69.78081,22142
386751,Bharanikāvu Tekku,1024,9.18485,76.56076,15922
390150,Bharatpur,1038,27.67680,84.43589,369377
385997,Bharatpur,1024,27.21731,77.49009,229384
385996,Bharthana,1024,26.75231,79.22180,41055
385995,Bharūch,1024,21.69482,72.98050,169007
385994,Bharwāri,1024,25.56078,81.49164,16411
